id,eventname,EventLongName,EventShortName,LocalisedEventLongName,countrycode,seriesid,EventLocation,Latitude,Longitude
1,bushy,Bushy parkrun,Bushy Park,,97,1,"Bushy Park, Teddington",51.410992,-0.335791
2,wimbledon,Wimbledon Common parkrun,Wimbledon Common,,97,1,Wimbledon Common,51.442078,-0.232215
3,banstead,Banstead Woods parkrun,Banstead Woods,,97,1,"Banstead Woods, Coulsdon",51.307648,-0.184225
4,richmond,Richmond parkrun,Richmond Park,,97,1,"Richmond Park, Richmond upon Thames",51.451962,-0.292886
5,woodhousemoor,Woodhouse Moor parkrun,Woodhouse Moor,,97,1,"Woodhouse Moor, Leeds",53.808582,-1.560059
6,bramhall,Bramhall parkrun,Bramhall Park,,97,1,"Bramhall Park, near Stockport",53.374268,-2.160702
8,brighton,Brighton & Hove parkrun,Brighton & Hove,,97,1,"Hove Park, Brighton",50.84214,-0.172498
9,cardiff,Cardiff parkrun,Cardiff,,97,1,Cardiff Blackweir,51.49736,-3.207107
10,albert,"Albert parkrun, Middlesbrough",Albert,,97,1,"Albert Park, Middlesbrough",54.564972,-1.231788
11,basingstoke,Basingstoke parkrun,Basingstoke,,97,1,Basingstoke War Memorial Park,51.258831,-1.082035
12,pollok,"Pollok parkrun, Glasgow",Pollok,,97,1,"Pollok Park, Glasgow",55.82992,-4.307882
13,amager,Amager Fælled parkrun,Amager Fælled,,23,1,"Amager Fælled, København",55.653057,12.575108
14,gorleston,Gorleston Cliffs parkrun,Gorleston,,97,1,Gorleston Cliffs Promenade,52.567806,1.73069
15,bedfont,Bedfont Lakes parkrun,Bedfont Lakes,,97,1,Bedfont Lakes Country Park,51.440762,-0.451523
18,heaton,Heaton parkrun,Heaton Park,,97,1,"Heaton Park, Manchester",53.531975,-2.256263
19,roundshaw,Roundshaw Downs parkrun,Roundshaw Downs,,97,1,"Roundshaw Downs, near South Croydon",51.352253,-0.11872
20,reading,Reading parkrun,Reading,,97,1,"Thames Riverside, Reading",51.460384,-0.941573
21,woodbank,Woodbank parkrun,Woodbank,,97,1,"Woodbank Park, Stockport",53.408405,-2.130945
22,blackpark,Black Park parkrun,Black Park,,97,1,"Black Park Country Park, Slough",51.540329,-0.5476
23,silksworth,Silksworth parkrun,Silksworth,,97,1,"Silksworth Sports Centre, Sunderland",54.883911,-1.409099
24,finsbury,Finsbury parkrun,Finsbury Park,,97,1,Finsbury Park,51.569595,-0.104145
25,stpeters,St Peters parkrun,St Peters,,3,1,"Sydney Park, St Peters, Sydney",-33.907658,151.18219
26,edinburgh,Edinburgh parkrun,Edinburgh,,97,1,Edinburgh Promenade,55.978806,-3.291585
27,bromley,Bromley parkrun,Bromley,,97,1,"Norman Park, Bromley",51.386539,0.022874
28,southmanchester,South Manchester parkrun,South Manchester,,97,1,Platt Fields Park,53.446072,-2.224689
29,bexley,Bexley parkrun,Bexley,,97,1,"Danson Park, Bexley",51.455132,0.113254
30,wakefieldthornes,Wakefield Thornes parkrun,Wakefield Thornes,,97,1,Thornes Park,53.672488,-1.509682
31,harrow,Harrow parkrun,Harrow,,97,1,Harrow Recreation Ground,51.581781,-0.342734
32,lloyd-juniors,Lloyd junior parkrun,Lloyd juniors,Lloyd junior parkrun,97,2,Lloyd Park,51.36575,-0.080886
33,dover-juniors,Dover junior parkrun,Dover juniors,Dover junior parkrun,97,2,Kearsney Abbey,51.14766,1.269228
34,hull,Hull parkrun,Hull,,97,1,"East Park, Hull",53.764645,-0.300708
35,hadleigh,"Hadleigh parkrun, Essex",Hadleigh,,97,1,Hadleigh Country Park,51.549769,0.59606
36,brentwood-juniors,Brentwood junior parkrun,Brentwood juniors,Brentwood junior parkrun,97,2,Weald Country Park,51.623854,0.265978
37,moorsvalley-juniors,Moors Valley junior parkrun,Moors Valley juniors,Moors Valley junior parkrun,97,2,Moors Valley Country Park and Forest,50.851371,-1.849369
38,banbury,Banbury parkrun,Banbury,,97,1,Spiceball park,52.068807,-1.332318
39,eastbourne,Eastbourne parkrun,Eastbourne,,97,1,"Shinewater Park, Eastbourne",50.806248,0.290451
40,roukenglen-juniors,Rouken Glen junior parkrun,Rouken Glen juniors,Rouken Glen junior parkrun,97,2,Rouken Glen Park,55.79831,-4.316869
41,aberdeen,Aberdeen parkrun,Aberdeen,,97,1,Aberdeen Beach Esplanade,57.173898,-2.086256
42,crossflatts-juniors,Cross Flatts junior parkrun,Cross Flatts juniors,Cross Flatts junior parkrun,97,2,Cross Flatts Park,53.776611,-1.558242
43,penallta-juniors,Penallta junior parkrun,Penallta juniors,Penallta junior parkrun,97,2,Parc Penallta Country Park,51.644903,-3.245668
44,grovelands,"Grovelands parkrun, Enfield",Grovelands,,97,1,"Grovelands Park, Enfield",51.633076,-0.113769
45,lutonwardown,Luton Wardown parkrun,Luton Wardown,,97,1,Wardown Park,51.889853,-0.420917
46,basildon,Basildon parkrun,Basildon,,97,1,Northlands Park,51.577778,0.499615
47,plean,Plean parkrun,Plean,,97,1,Plean Country Park,56.057791,-3.881607
48,kingsway,"Kingsway parkrun, Gloucester",Kingsway,,97,1,Kingsway Sports Pavillion,51.821487,-2.272804
49,frimleylodge,Frimley Lodge parkrun,Frimley Lodge,,97,1,Frimley Lodge Park,51.298622,-0.724851
50,ashtoncourt,Ashton Court parkrun,Ashton Court,,97,1,"Ashton Court, Bristol",51.443592,-2.639948
51,hackneymarshes,Hackney Marshes parkrun,Hackney Marshes,,97,1,Hackney Marshes,51.553686,-0.025368
52,albertmelbourne,"Albert parkrun, Melbourne",Albert Melbourne,,3,1,"Albert Park, Melbourne, Australia",-37.843521,144.96312
53,greenwich,Greenwich parkrun,Greenwich,,97,1,"Avery Hill Park, Greenwich",51.449459,0.075155
54,tamartrails,Tamar Trails parkrun,Tamar Trails,,97,1,Tamar Trails Centre,50.535163,-4.201763
55,beehive-juniors,Beehive junior parkrun,Beehive juniors,Beehive junior parkrun,97,2,King George V Playing Fields,51.788927,-0.189677
56,olddeerpark,Old Deer Park parkrun,Old Deer Park,,97,1,"Old Deer Park, Richmond",51.464417,-0.306973
57,newcastle,Newcastle parkrun,Newcastle,,97,1,"Exhibition Park, Newcastle",54.983803,-1.617994
58,colwick,Colwick parkrun,Colwick,,97,1,"Colwick Country Park, Nottingham",52.945171,-1.09786
59,preston,Preston parkrun,Preston,,97,1,Avenham and Miller Parks,53.751374,-2.703902
60,southampton,Southampton parkrun,Southampton,,97,1,Southampton Common,50.923624,-1.407766
61,lydiard,Lydiard parkrun,Lydiard,,97,1,"Lydiard Park, Swindon",51.561489,-1.853621
62,houghtonhall-juniors,Houghton Hall junior parkrun,Houghton Hall juniors,Houghton Hall junior parkrun,97,2,Houghton Hall Park,51.901555,-0.509799
63,rostrevor,Rostrevor parkrun,Rostrevor,,97,1,Kilbroney Park,54.099486,-6.193448
64,andover,Andover parkrun,Andover,,97,1,"Charlton Lakeside, Andover",51.221092,-1.512766
65,prudhoeriverside,Prudhoe Riverside parkrun,Prudhoe Riverside,,97,1,Tyne Riverside Country Park,54.968071,-1.863141
67,graves-juniors,Graves junior parkrun,Graves juniors,Graves junior parkrun,97,2,Graves Park,53.338892,-1.465051
68,forestofdean,Forest of Dean parkrun,Forest of Dean,,97,1,"Coverham Enclosure, Forest of Dean",51.808701,-2.605219
69,coventry,Coventry parkrun,Coventry,,97,1,"War Memorial Park, Coventry",52.39172,-1.524026
70,centralpark-juniors,Central Park junior parkrun,Central Park juniors,Central Park junior parkrun,97,2,Central Park,52.584576,-0.235072
71,guildford,Guildford parkrun,Guildford,,97,1,"Stoke Park, Guildford",51.247383,-0.562062
72,hampsteadheath,Hampstead Heath parkrun,Hampstead Heath,,97,1,Hampstead Heath,51.558598,-0.168185
73,cheddar-juniors,Cheddar junior parkrun,Cheddar juniors,Cheddar junior parkrun,97,2,Kings Fitness and Leisure,51.273808,-2.77921
74,ipswich,Ipswich parkrun,Ipswich,,97,1,Chantry Park,52.050923,1.116032
75,kingston,Kingston parkrun,Kingston,,97,1,Kingston Riverside,51.426567,-0.309516
76,brockwell,"Brockwell parkrun, Herne Hill",Brockwell,,97,1,"Brockwell Park, Herne Hill",51.452538,-0.105464
77,leamington,Leamington parkrun,Leamington,,97,1,"Newbold Comyn, Leamington",52.28714,-1.504655
78,cannockchase,Cannock Chase parkrun,Cannock Chase,,97,1,Cannock Chase,52.73744,-1.99542
79,maidstone,Maidstone parkrun,Maidstone,,97,1,River Medway,51.29641,0.507689
80,belfastvictoria-juniors,Belfast Victoria junior parkrun,Belfast Victoria juniors,Belfast Victoria junior parkrun,97,2,"Victoria Park, Belfast",54.609998,-5.870456
81,oxford,Oxford parkrun,Oxford,,97,1,"Cutteslowe and Sunnymead Park, Oxford",51.790901,-1.262419
82,plymvalley,Plymvalley parkrun,Plymvalley,,97,1,Plymbridge Woods,50.409091,-4.079618
83,trelissick,Trelissick parkrun,Trelissick,,97,1,Kilbroney Park,50.217331,-5.02826
84,riverfront,Riverfront parkrun,Riverfront,,97,1,The Riverfront,51.588559,-2.993317
86,endcliffe,Endcliffe parkrun,Endcliffe,,97,1,"Endcliffe Park, Sheffield",53.368631,-1.507364
87,harcourthill-juniors,Harcourt Hill junior parkrun,Harcourt Hill juniors,Harcourt Hill junior parkrun,97,2,Harcourt Hill Campus,51.739341,-1.295183
89,hyndburn,Hyndburn parkrun,Hyndburn,,97,1,Wilson Playing Fields,53.781711,-2.376734
90,keswick-juniors,Keswick junior parkrun,Keswick juniors,Keswick junior parkrun,97,2,Upper Fitz Park,54.602628,-3.135084
91,southsea,Southsea parkrun,Southsea,,97,1,Southsea Esplanade,50.778853,-1.081316
92,themeadows-juniors,The Meadows junior parkrun,The Meadows juniors,The Meadows junior parkrun,97,2,The Meadows,55.940327,-3.184283
93,bedford-juniors,Bedford junior parkrun,Bedford juniors,Bedford junior parkrun,97,2,Jubilee Park,52.124298,-0.449781
94,queensparklondon-juniors,"Queen’s Park junior parkrun, London","Queen’s Park juniors, London",Queen’s Park London junior parkrun,97,2,Queen’s Park,51.534733,-0.21127
95,stalbans,St Albans parkrun,St Albans,,97,1,"Verulam Park, St Albans",51.75193,-0.355371
96,york,York parkrun,York,,97,1,York Racecourse,53.935375,-1.101379
97,havant,Havant parkrun,Havant,,97,1,Staunton Country Park,50.875771,-0.975565
98,rugby,Rugby parkrun,Rugby,,97,1,Whinfield Recreation Ground,52.37318,-1.238464
99,beckenhamplace,Beckenham Place parkrun,Beckenham Place,,97,1,Beckenham Place Park,51.41853,-0.01959
100,whiteley,Whiteley parkrun,Whiteley,,97,1,Whiteley Meadowside,50.885632,-1.247926
101,norwich,Norwich parkrun,Norwich,,97,1,"Eaton Park, Norwich",52.620422,1.255682
102,torbayvelopark,Torbay Velopark parkrun,Torbay Velopark,,97,1,Torbay Velopark,50.423441,-3.564297
103,ashford,Ashford parkrun,Ashford,,97,1,Victoria Park,51.14347,0.864218
104,braunstone,Braunstone parkrun,Braunstone,,97,1,"Braunstone, Leicester",52.626129,-1.178681
105,skelmersdale-juniors,Skelmersdale junior parkrun,Skelmersdale juniors,Skelmersdale junior parkrun,97,2,The Amphitheatre,53.550389,-2.776333
106,oldham,Oldham parkrun,Oldham,,97,1,"Alexandra Park, Oldham",53.534187,-2.104118
107,rodingvalley,Roding Valley parkrun,Roding Valley,,97,1,Roding Valley Recreation Ground,51.638607,0.066415
108,bedford,Bedford parkrun,Bedford,,97,1,"Bedford Park, Bedford",52.148125,-0.459366
109,millom,Millom parkrun,Millom,,97,1,Millom Network Centre,54.21399,-3.26996
110,llanellicoast,Llanelli Coast parkrun,Llanelli Coast,,97,1,King George V Playing Fields,51.68508,-4.206204
111,dudley,Dudley parkrun,Dudley,,97,1,The Dell Stadium,52.490027,-2.134568
112,bestwoodvillage,Bestwood Village parkrun,Bestwood Village,,97,1,Bestwood Country Park,53.022132,-1.171188
113,miltonkeynes,Milton Keynes parkrun,Milton Keynes,,97,1,"Willen Lake, Milton Keynes",52.05011,-0.722984
114,hyde,Hyde parkrun,Hyde,,97,1,Hyde Park,53.45713,-2.076554
115,bognorregis-juniors,Bognor Regis junior parkrun,Bognor Regis juniors,Bognor Regis junior parkrun,97,2,Arena Sports Centre,50.792765,-0.693819
116,phoenix,Phoenix parkrun,Phoenix,,97,1,Phoenix Park,53.337865,-2.681623
117,wycomberye-juniors,Wycombe Rye junior parkrun,Wycombe Rye juniors,Wycombe Rye junior parkrun,97,2,Wycombe Rye,51.626131,-0.742427
118,knowsley,Knowsley parkrun,Knowsley,,97,1,Stadt Moers Park,53.411116,-2.811654
119,shrewsbury-juniors,Shrewsbury junior parkrun,Shrewsbury juniors,Shrewsbury junior parkrun,97,2,Quarry Park,52.704425,-2.750059
120,newtown,Newtown parkrun,Newtown,,97,1,Dolerw Park Bridge,52.514658,-3.319012
121,bathskyline,Bath Skyline parkrun,Bath Skyline,,97,1,Bath,51.364717,-2.338425
122,moorsvalley,Moors Valley parkrun,Moors Valley,,97,1,Moors Valley Country Park and Forest,50.85124,-1.849419
123,bathodddown-juniors,Bath Odd Down junior parkrun,Bath Odd Down juniors,Bath Odd Down junior parkrun,97,2,Odd Down Sports Ground,51.363164,-2.376181
124,shipleycountry,Shipley Country parkrun,Shipley Country,,97,1,Shipley Country Park,53.008339,-1.359978
125,rickmansworth,Rickmansworth parkrun,Rickmansworth,,97,1,Rickmansworth Aquadrome,51.633087,-0.47589
126,highburyfields,Highbury Fields parkrun,Highbury Fields,,97,1,"Highbury Fields, Highbury",51.546959,-0.102884
127,halifax,Halifax parkrun,Halifax,,97,1,Shroggs Park,53.731746,-1.873871
128,cambridge,Cambridge parkrun,Cambridge,,97,1,"Milton Country Park, Cambridge",52.236675,0.161906
129,eastville-juniors,Eastville junior parkrun,Eastville juniors,Eastville junior parkrun,97,2,Eastville Park,51.476132,-2.554961
131,bradford,Bradford parkrun,Bradford,,97,1,"Lister Park, Bradford",53.814575,-1.775102
132,canterbury,Canterbury parkrun,Canterbury,,97,1,The Pavillion,51.299468,1.057002
133,nonsuch,Nonsuch parkrun,Nonsuch,,97,1,"Nonsuch Park, Cheam",51.356926,-0.231078
134,andover-juniors,Andover junior parkrun,Andover juniors,Andover junior parkrun,97,2,Charlton Sports Fields,51.220901,-1.504812
135,osterley-juniors,Osterley junior parkrun,Osterley juniors,Osterley junior parkrun,97,2,Osterley Park,51.489405,-0.350722
136,gnoll-juniors,Gnoll junior parkrun,Gnoll juniors,Gnoll junior parkrun,97,2,Gnoll Estate Country Park,51.662428,-3.787224
137,sthelens,St Helens parkrun,St Helens,,97,1,Victoria Park,53.46322,-2.744088
138,royaltunbridgewells,Royal Tunbridge Wells parkrun,Royal Tunbridge Wells,,97,1,Dunorlan Park,51.133614,0.284851
140,sheptonmallet,Shepton Mallet parkrun,Shepton Mallet,,97,1,Collett Park,51.187513,-2.542461
141,widnes-juniors,Widnes junior parkrun,Widnes juniors,Widnes junior parkrun,97,2,Victoria Park,53.37434,-2.730313
142,laleham-juniors,Laleham junior parkrun,Laleham juniors,Laleham junior parkrun,97,2,Thames Side,51.399461,-0.488839
143,eastleigh,Eastleigh parkrun,Eastleigh,,97,1,"Fleming Park Old Golf Course, Eastleigh",50.971433,-1.374032
144,hemlingtonlake-juniors,Hemlington Lake junior parkrun,Hemlington Lake juniors,Hemlington Lake junior parkrun,97,2,Hemlington Lake,54.526005,-1.244316
145,bramley-juniors,Bramley junior parkrun,Bramley juniors,Bramley junior parkrun,97,2,Bramley Park,53.81364,-1.634046
146,nibe,Nibe parkrun,Nibe,,23,1,"Nibe, Denmark",56.987144,9.654837
147,burnley-juniors,Burnley junior parkrun,Burnley juniors,Burnley junior parkrun,97,2,Towneley Park,53.777385,-2.219036
148,boston,Boston parkrun,Boston,,97,1,Witham Way Country Park,52.990156,-0.038556
149,lincoln,Lincoln parkrun,Lincoln,,97,1,Boultham Park,53.208848,-0.560904
150,bloxwich-juniors,Bloxwich junior parkrun,Bloxwich juniors,Bloxwich junior parkrun,97,2,King George V Memorial Playing Fields,52.625246,-2.006525
151,pontefract,Pontefract parkrun,Pontefract,,97,1,Pontefract Racecourse,53.697922,-1.325197
152,brighouse,Brighouse parkrun,Brighouse,,97,1,Wellholme Park,53.706086,-1.778156
153,rosliston,Rosliston parkrun,Rosliston,,97,1,Rosliston Forestry Centre,52.754526,-1.639681
154,crystalpalace,Crystal Palace parkrun,Crystal Palace,,97,1,Crystal Palace Park,51.419846,-0.065703
155,carlisle,Carlisle parkrun,Carlisle,,97,1,Chances Park,54.886025,-2.963455
156,whitleybay,Whitley Bay parkrun,Whitley Bay,,97,1,Whitley Bay Links Common,55.048875,-1.448736
158,aviemore,Aviemore parkrun,Aviemore,,97,1,Aviemore,57.205275,-3.818635
159,strathclyde,Strathclyde parkrun,Strathclyde,,97,1,Strathclyde Country Park,55.789631,-4.031425
160,camperdown,"Camperdown parkrun, Dundee",Camperdown,,97,1,Camperdown Country Park,56.483681,-3.030896
161,minehead,Minehead parkrun,Minehead,,97,1,Minehead,51.207524,-3.469591
162,faelledparken,Fælledparken parkrun,Fælledparken,,23,1,"Fælledparken på Østerbro, København",55.701775,12.568917
163,clitheroecastle-juniors,Clitheroe Castle junior parkrun,Clitheroe Castle juniors,Clitheroe Castle junior parkrun,97,2,Clitheroe Castle Gardens,53.870606,-2.394122
164,arrowvalley,Arrow Valley parkrun,Arrow Valley,,97,1,Arrow Valley Country Park,52.307848,-1.910333
165,waterworks,"Waterworks parkrun, Belfast",Waterworks,,97,1,"Waterworks, North Belfast",54.619299,-5.942613
166,rooseveltislanddc,Roosevelt Island DC parkrun,Roosevelt Island DC,,98,1,Roosevelt Island DC,38.89638,-77.063956
167,londonfields-juniors,London Fields junior parkrun,London Fields juniors,London Fields junior parkrun,97,2,London Fields West Side,51.542178,-0.060373
169,brabrand,Brabrand parkrun,Brabrand,,23,1,Hasle Bakker,56.165699,10.141282
170,harlow-juniors,Harlow junior parkrun,Harlow juniors,Harlow junior parkrun,97,2,Harlow Town Park,51.77798,0.098433
171,peacehaven,Peacehaven parkrun,Peacehaven,,97,1,Centenary Park,50.794092,0.012418
172,bournemouth,Bournemouth parkrun,Bournemouth,,97,1,Kings Park Athletic Stadium,50.73362,-1.832732
173,esbjerg,Esbjerg parkrun,Esbjerg,,23,1,Vognsbølparken,55.482349,8.442703
174,mansfield,Mansfield parkrun,Mansfield,,97,1,Mansfield,53.174034,-1.183844
175,leightonbuzzard-juniors,Leighton Buzzard junior parkrun,Leighton Buzzard juniors,,97,2,Parson’s Close Recreation Ground,51.914155,-0.662005
176,brueton,Brueton parkrun,Brueton,,97,1,"Brueton Park, Solihull",52.406754,-1.764593
177,eglinton,Eglinton parkrun,Eglinton,,97,1,Eglinton Country Park,55.643935,-4.669662
178,navan,Navan parkrun,Navan,,42,1,Blackwater Park,53.661214,-6.693934
179,margate-juniors,Margate junior parkrun,Margate juniors,Margate junior parkrun,97,2,Hartsdown Park,51.383375,1.37197
180,peacehaven-juniors,Peacehaven junior parkrun,Peacehaven juniors,Peacehaven junior parkrun,97,2,Centenary Park,50.794091,0.011761
181,northampton,Northampton parkrun,Northampton,,97,1,Northampton Racecourse,52.248143,-0.884445
182,markeaton,Markeaton parkrun,Markeaton,,97,1,Markeaton,52.935408,-1.504769
183,valentines,Valentines parkrun,Valentines,,97,1,"Valentines Park, Redbridge",51.56749,0.07198
184,oakhill,Oak Hill parkrun,Oak Hill,,97,1,"Oak Hill Park, East Barnet",51.637718,-0.153744
185,greenock,Greenock parkrun,Greenock,,97,1,The Esplanade,55.956525,-4.767348
186,avenhampark-juniors,Avenham Park junior parkrun,Avenham Park juniors,Avenham Park junior parkrun,97,2,Avenham and Miller Park,53.753281,-2.699084
187,queensparkrochdale-juniors,"Queen’s Park junior parkrun, Rochdale","Queen’s Park juniors, Rochdale","Queen’s Park junior parkrun, Rochdale",97,2,Queen’s Park,53.601254,-2.215383
188,colchestercastle,Colchester Castle parkrun,Colchester Castle,,97,1,Castle Park,51.89167,0.902724
189,cannonhill,"Cannon Hill parkrun, Birmingham",Cannon Hill,,97,1,"Cannon Hill, Birmingham",52.452637,-1.89997
190,lloyd,"Lloyd parkrun, Croydon",Lloyd,,97,1,"Lloyd Park, Croydon",51.364807,-0.079973
191,gunnersbury,Gunnersbury parkrun,Gunnersbury,,97,1,"Gunnersbury Park, South Acton",51.499405,-0.292253
192,burnhamoncrouch,Burnham-on-Crouch parkrun,Burnham-on-Crouch,,97,1,Riverside Country Park,51.627409,0.810923
193,newfarm,New Farm parkrun,New Farm,,3,1,"New Farm, Brisbane",-27.471134,153.051636
194,bushy-juniors,Bushy junior parkrun,Bushy juniors,,97,2,"Bushy Park, Teddington",51.420504,-0.332639
196,gainsborough,Gainsborough parkrun,Gainsborough,,97,1,West Lindsey Leisure Centre,53.406272,-0.770777
198,newbury,Newbury parkrun,Newbury,,97,1,"Greenham Common, Newbury",51.378426,-1.292267
199,warrington,Warrington parkrun,Warrington,,97,1,Victoria Park,53.384221,-2.574685
200,stonehaven,Stonehaven parkrun,Stonehaven,,97,1,Mineralwell Park,56.969993,-2.212502
201,worcester,Worcester parkrun,Worcester,,97,1,Worcester Woods Country Park,52.186989,-2.178726
202,catterick,Catterick parkrun,Catterick,,97,1,Catterick Racecourse,54.385534,-1.646503
203,whitstable,Whitstable parkrun,Whitstable,,97,1,Whitstable Promenade,51.365295,1.041942
204,westmill,Westmill parkrun,Westmill,,97,1,Westmill Farm,51.821422,-0.060813
205,mainbeach,Main Beach parkrun,Main Beach,,3,1,"Main Beach, Goldcoast",-27.972706,153.428879
206,falkirk,Falkirk parkrun,Falkirk,,97,1,"Callendar Park, Falkirk",55.99543,-3.766712
207,weymouth-juniors,Weymouth junior parkrun,Weymouth juniors,Weymouth junior parkrun,97,2,Lodmoor Country Park,50.627396,-2.449547
208,stevenage-juniors,Stevenage junior parkrun,Stevenage juniors,Stevenage junior parkrun,97,2,Hampson Park,51.913566,-0.186637
209,merthyr,Merthyr parkrun,Merthyr,,97,1,Merthyr Leisure Village,51.73896,-3.375658
210,bracknell,Bracknell parkrun,Bracknell,,97,1,Great Hollands Recreation Ground,51.390248,-0.776844
211,comber-juniors,Comber junior parkrun,Comber juniors,Comber junior parkrun,97,2,Parkway,54.549098,-5.739909
213,brierleyforest,Brierley Forest parkrun,Brierley Forest,,97,1,Mineralwell Park,53.131155,-1.295214
214,inverleith-juniors,Inverleith junior parkrun,Inverleith juniors,Inverleith junior parkrun,97,2,Inverleith park,55.964343,-3.213143
215,harrogate,Harrogate parkrun,Harrogate,,97,1,"The Stray, Harrogate",53.992428,-1.521435
216,montrose,Montrose parkrun,Montrose,,97,1,Roselea Football Club,56.726297,-2.455223
217,lymingtonwoodside,Lymington Woodside parkrun,Lymington Woodside,,97,1,Woodside Gardens,50.747747,-1.54548
218,southnorwood,South Norwood parkrun,South Norwood,,97,1,South Norwood Country Park,51.396111,-0.059908
219,mansfieldoh,Mansfield OH parkrun,Mansfield OH,,98,1,North Lake Park,40.767616,-82.538434
220,leavesden-juniors,Leavesden junior parkrun,Leavesden juniors,Leavesden junior parkrun,97,2,Leavesden Country Park,51.705262,-0.403035
221,southport,Southport parkrun,Southport,,97,1,Hesketh Park,53.656276,-2.985341
222,wolverhampton,Wolverhampton parkrun,Wolverhampton,,97,1,West Park,52.588775,-2.140875
223,queenspark-juniors,"Queen’s Park junior parkrun, Bolton","Queen’s Park juniors, Bolton",,97,2,Queen’s Park,53.577613,-2.444706
224,gloucesternorth,Gloucester North parkrun,Gloucester North,,97,1,Plock Court Playing Fields,51.878304,-2.231707
225,perth,Perth parkrun,Perth,,97,1,North Inch and Riverside parks,56.40515,-3.435422
226,worcesterpitchcroft,Worcester Pitchcroft parkrun,Worcester Pitchcroft,,97,1,"The Pitchcroft, Worcester Racecourse",52.201513,-2.231964
227,jubilee-juniors,Jubilee junior parkrun,Jubilee juniors,Jubilee junior parkrun,97,2,Jubilee Park,52.359161,-0.165825
228,newport,Newport parkrun,Newport,,97,1,"Tredegar House, Newport",51.559479,-3.030939
229,congleton,Congleton parkrun,Congleton,,97,1,Astbury Mere,53.160781,-2.229795
230,wansteadflats,Wanstead Flats parkrun,Wanstead Flats,,97,1,"Wanstead Flats, Epping Forest",51.56078,0.014977
231,salford-juniors,Salford junior parkrun,Salford juniors,Salford junior parkrun,97,2,Buille Hill Park,53.490729,-2.3054
232,durham,Durham parkrun,Durham,,97,1,"Graham Sports Centre, Durham",54.767605,-1.558852
233,poole,Poole parkrun,Poole,,97,1,"Poole Park, Poole",50.720348,-1.968876
234,henleyonthames,Henley-on-Thames parkrun,Henley-on-Thames,,97,1,Henley-on-Thames,51.531978,-0.919288
236,netleyabbey-juniors,Netley Abbey junior parkrun,Netley Abbey juniors,Netley Abbey junior parkrun,97,2,Royal Victoria Country Park,50.8683,-1.345392
237,derrycity,Derry City parkrun,Derry City,,97,1,Derry City Centre,55.006966,-7.318933
238,stokesbay-juniors,Stokes Bay junior parkrun,Stokes Bay juniors,Stokes Bay junior parkrun,97,2,Stokes Bay Promenade,50.781474,-1.153797
239,killerton,Killerton parkrun,Killerton,,97,1,"Killerton, Broadclyst",50.792835,-3.455007
240,barnsley,Barnsley parkrun,Barnsley,,97,1,"Locke Park, Barnsley",53.544369,-1.486115
241,riddlesdown,Riddlesdown parkrun,Riddlesdown,,97,1,"Riddlesdown, Warlingham",51.318485,-0.079549
242,chester,Chester parkrun,Chester,,97,1,Countess of Chester Country Park,53.207796,-2.902368
243,jordanstown-juniors,Jordanstown junior parkrun,Jordanstown juniors,Jordanstown junior parkrun,97,2,"Ulster University, Jordanstown Campus",54.68829,-5.88614
244,kettering,Kettering parkrun,Kettering,,97,1,Wicksteed Park,52.384226,-0.710653
245,burystedmunds,Bury St Edmunds parkrun,Bury St Edmunds,,97,1,Nowton Park,52.224887,0.730183
246,marketharborough,Market Harborough parkrun,Market Harborough,,97,1,Welland Park,52.474487,-0.924979
247,rothwell,Rothwell parkrun,Rothwell,,97,1,Springhead Park,53.750032,-1.473456
248,gateshead,Gateshead parkrun,Gateshead,,97,1," Saltwell Park, Gateshead",54.944733,-1.602094
249,standrews,St Andrews parkrun,St Andrews,,97,1,Craigtoun Country Park,56.317711,-2.838234
250,nobles,Nobles parkrun,Nobles,,97,1,Nobles Park,54.165828,-4.481846
251,walsall,Walsall Arboretum parkrun,Walsall Arboretum,,97,1,Walsall Arboretum,52.58725,-1.966252
252,penningtonflash,Pennington Flash parkrun,Pennington Flash,,97,1,Pennington Flash,53.491608,-2.542745
253,acton-juniors,Acton junior parkrun,Acton juniors,Acton junior parkrun,97,2,Acton Park,51.507905,-0.258062
254,pymmes,Pymmes parkrun,Pymmes,,97,1,"Pymmes Park, Edmonton",51.61887,-0.066953
255,princes,"Princes parkrun, Liverpool",Princes,,97,1,"Princes Park, Liverpool",53.386456,-2.956975
256,vejen,Vejen parkrun,Vejen,,23,1,Vejen Idrætscenter,55.474609,9.120852
257,crystalpalace-juniors,Crystal Palace junior parkrun,Crystal Palace juniors,Crystal Palace junior parkrun,97,2,Crystal Palace Park,51.419792,-0.06577
258,huddersfield,Huddersfield parkrun,Huddersfield,,97,1,"Greenhead Park, Huddersfield",53.650608,-1.800685
259,maesteg,Maesteg parkrun,Maesteg,,97,1,Welfare Park,51.609499,-3.665573
260,llanellicoast-juniors,Llanelli Coast junior parkrun,Llanelli Coast juniors,Llanelli Coast junior parkrun,97,2,King George V Playing Fields,51.685529,-4.206828
261,longeaton,Long Eaton parkrun,Long Eaton,,97,1,West Park Leisure Centre,52.895155,-1.285853
262,stanleypark-juniors,Stanley Park junior parkrun,Stanley Park juniors,Stanley Park junior parkrun,97,2,Stanley Park,53.43405,-2.965534
263,uptonhouse,Upton House parkrun,Upton House,,97,1,Upton Country Park,50.734891,-2.013428
264,woking-juniors,Woking junior parkrun,Woking juniors,Woking junior parkrun,97,2,Woking Park,51.311946,-0.555006
265,medina,Medina I.O.W. parkrun,Medina I.O.W.,,97,1,"Seaclose Park, Medina, I.O.W.",50.711823,-1.286999
266,rossmere-juniors,Rossmere junior parkrun,Rossmere juniors,Rossmere junior parkrun,97,2,Rossmere Park,54.661422,-1.226339
267,inverness,Inverness parkrun,Inverness,,97,1,"Bught Park, Inverness",57.463654,-4.235474
268,tonbridge-juniors,Tonbridge junior parkrun,Tonbridge juniors,Tonbridge junior parkrun,97,2,Tonbridge Farm Sportsground,51.20977,0.270291
270,leakinpark,Leakin Park parkrun,Leakin Park,,98,1,Winans Meadow,39.30401,-76.695322
271,duthie-juniors,Duthie junior parkrun,Duthie juniors,Duthie junior parkrun,97,2,Duthie Park,57.131553,-2.105342
272,lochleven-juniors,Loch Leven junior parkrun,Loch Leven juniors,Loch Leven junior parkrun,97,2,Kirkgate Park,56.201892,-3.412742
273,bolton,Bolton parkrun,Bolton,,97,1,"Leverhulme Park, Bolton",53.574715,-2.395615
274,edenproject,Eden Project parkrun,Eden Project,,97,1,Eden Project,50.358315,-4.74285
275,raphael,Raphael parkrun,Raphael,,97,1,Raphael Park,51.585798,0.19249
276,ferrymeadows,Ferry Meadows parkrun,Ferry Meadows,,97,1,Ferry Meadows Country Park,52.565563,-0.308132
277,maldonprom,Maldon Prom parkrun,Maldon Prom,,97,1,Maldon Promenade Park,51.726742,0.68877
278,normanbyhall,Normanby Hall parkrun,Normanby Hall,,97,1,Normanby Hall Country Park,53.638407,-0.659924
279,billericay,Billericay parkrun,Billericay,,97,1,Lake Meadows Park,51.632966,0.417446
280,winchester,Winchester parkrun,Winchester,,97,1,North Walls Recreation Ground,51.069286,-1.310849
281,forestofdean-juniors,Forest of Dean junior parkrun,Forest of Dean juniors,,97,2,"Coverham Enclosure, Forest of Dean",51.808701,-2.605219
282,wycomberye,Wycombe Rye parkrun,Wycombe Rye,,97,1,The Rye,51.62337,-0.74009
283,pagepark-juniors,Page Park junior parkrun,Page Park juniors,Page Park junior parkrun,97,2,Page Park,51.482568,-2.498184
284,dumfries-juniors,Dumfries junior parkrun,Dumfries juniors,,97,2,Dock Park,55.062707,-3.606924
285,stevenage,Stevenage parkrun,Stevenage,,97,1,Six Hills Way,51.902634,-0.17993
286,conkers,Conkers parkrun,Conkers,,97,1,Conkers Park,52.739475,-1.543021
287,evesham-juniors,Evesham junior parkrun,Evesham juniors,Evesham junior parkrun,97,2,Evesham,52.09023,-1.958169
288,barnstaple,Barnstaple parkrun,Barnstaple,,97,1,Rock Park,51.072561,-4.053612
290,concord,"Concord parkrun, Sheffield",Concord,,97,1,"Concord Park, Sheffield",53.424007,-1.441612
291,abingdon,Abingdon parkrun,Abingdon,,97,1,"Rye Meadow, Abingdon",51.667957,-1.277429
292,amagerstrandpark,Amager Strandpark parkrun,Amager Strandpark,,23,1,"Amager Strandpark, København",55.662538,12.635341
293,linfordwood,Linford Wood parkrun,Linford Wood,,97,1,Linford Wood,52.05864,-0.760168
294,gunpowder,Gunpowder parkrun,Gunpowder,,97,1,"Gunpowder Park, Waltham Abbey",51.676037,-0.000831
295,belfastvictoria,Belfast Victoria parkrun,Belfast Victoria,,97,1,"Victoria Park, Belfast",54.608785,-5.881573
296,sandwellvalley,Sandwell Valley parkrun,Sandwell Valley,,97,1,Sandwell Park Farm,52.521531,-1.97579
297,roundhay,Roundhay parkrun,Roundhay,,97,1,"Roundhay Park, Leeds",53.83828,-1.496007
299,horsham,Horsham parkrun,Horsham,,97,1,Horsham,51.06651,-0.327908
300,allypally,Ally Pally parkrun,Ally Pally,,97,1,"Alexandra Palace, Haringey",51.595936,-0.12233
301,brynbach-juniors,Bryn Bach junior parkrun,Bryn Bach juniors,Bryn Bach junior parkrun,97,2,Bryn Bach country park,51.783571,-3.267184
302,wormwoodscrubs,Wormwood Scrubs parkrun,Wormwood Scrubs,,97,1,Wormwood Scrubs Park,51.520412,-0.238523
303,oudtshoorn,Oudtshoorn parkrun,Oudtshoorn,,85,1,Oudtshoorn,-33.534495,22.234316
304,barrow,Barrow parkrun,Barrow,,97,1,"Barrow Park, Barrow-in-Furness",54.117706,-3.218855
307,thornbury,Thornbury parkrun,Thornbury,,97,1,Mundy Playing Fields,51.606368,-2.530114
308,eastville,Eastville parkrun,Eastville,,97,1,Eastville Park,51.475453,-2.554304
309,hoblingwell,Hoblingwell parkrun,Hoblingwell,,97,1,Hoblingwell Wood Recreation Ground,51.400981,0.098847
310,wythenshawe,Wythenshawe parkrun,Wythenshawe,,97,1,"Wythenshawe Park, Wythenshawe",53.405502,-2.288139
312,ecos,"Ecos parkrun, Ballymena",Ecos,,97,1,"Ecos Park, Ballymena",54.867371,-6.259117
313,kingslynn,King’s Lynn parkrun,King’s Lynn,,97,1,"The Walks, King’s Lynn",52.752762,0.407446
314,southwickcountrypark,Southwick Country parkrun,Southwick Country Park,,97,1,Southwick Country Park,51.306461,-2.234092
316,forestrec-juniors,Forest Rec junior parkrun,Forest Rec juniors,Forest Rec junior parkrun,97,2,Forest Recreation Ground,52.965238,-1.160495
317,windynook,Windy Nook parkrun,Windy Nook,,97,1,Windy Nook Nature Park,54.940189,-1.563025
327,hanley,Hanley parkrun,Hanley,,97,1,"Hanley Park, Hanley",53.012501,-2.175164
328,colneylane,Colney Lane parkrun,Colney Lane,,97,1,UEA Colney Lane Playing Fields,52.621317,1.22519
329,troon,Troon parkrun,Troon,,97,1,South Beach Esplanade,55.541413,-4.670058
331,billingham-juniors,Billingham junior parkrun,Billingham juniors,Billingham junior parkrun,97,2,John Whitehead Park,54.610247,-1.289735
334,vogrie,Vogrie parkrun,Vogrie,,97,1,Vogrie Country Park,55.856879,-2.995012
335,southend,Southend parkrun,Southend,,97,1,Gunners Park,51.523431,0.787526
336,delta,Delta parkrun,Delta,,85,1,South Africa,-26.125349,28.009354
337,gdynia,parkrun Gdynia,Gdynia,parkrun Gdynia,74,1,"Bulwar Nadmorski, Gdynia",54.502632,18.558699
338,sewerby,Sewerby parkrun,Sewerby,,97,1,"Sewerby Hall and Gardens, Bridlington",54.103268,-0.160761
340,marketharborough-juniors,Market Harborough junior parkrun,Market Harborough juniors,Market Harborough junior parkrun,97,2,Welland Park,52.47499,-0.928372
341,ayr,Ayr parkrun,Ayr,,97,1,Rozelle Park,55.436189,-4.624316
342,durhamcity-juniors,Durham City junior parkrun,Durham City juniors,Durham City junior parkrun,97,2,Durham Racecourse,54.775551,-1.564287
343,mileend,Mile End parkrun,Mile End,,97,1,"Mile End Park, London",51.518169,-0.033946
344,dulwich,Dulwich parkrun,Dulwich,,97,1,"Dulwich Park, Dulwich",51.443869,-0.079206
345,gdansk,parkrun Gdańsk,Gdańsk,parkrun Gdańsk,74,1,"Park Ronalda Reagana, Gdansk",54.41428,18.6017
347,stonehouse,Stonehouse parkrun,Stonehouse,,97,1,Oldends Lane Playing Fields,51.752554,-2.287804
348,chippenham,Chippenham parkrun,Chippenham,,97,1,Monkton Park,51.460469,-2.113119
349,kirra,Kirra parkrun,Kirra,,3,1,"Kirra Beach, Gold Coast QLD, Australia",-28.166758,153.522781
350,newy,Newy parkrun,Newy,,3,1,"50a Tully St, Carrington, Newcastle NSW",-32.914566,151.76144
351,bressay,Bressay parkrun,Bressay,,97,1,Bressay,60.158081,-1.119683
352,queens,"Queen’s parkrun, Belfast",Queens,,97,1,"Queen's Uni Sport, Upper Malone",54.555092,-5.963387
353,falls,"Falls parkrun, Belfast",Falls,,97,1,"Falls Park, Belfast",54.586363,-5.978879
354,lowerhutt,Lower Hutt parkrun,Lower Hutt,,65,1,"Strand Park, Lowerhutt",-41.210738,174.899498
355,worsleywoods,Worsley Woods parkrun,Worsley Woods,,97,1,"Worsley Woods, Salford",53.494328,-2.359056
356,sedgefield,Sedgefield parkrun,Sedgefield,,97,1,"Hardwick Park, Sedgefield",54.653008,-1.466289
357,houghtonhall,Houghton Hall parkrun,Houghton Hall,,97,1,Houghton Hall Park,51.90155,-0.510046
358,roodepoort,Roodepoort parkrun,Roodepoort,,85,1,"Len Rutter Park, Johannesburg",-26.163327,27.90703
359,redcar,Redcar parkrun,Redcar,,97,1,"Locke Park, Redcar",54.615225,-1.07902
360,livingston,Livingston parkrun,Livingston,,97,1,Almondvale Park,55.886797,-3.518828
361,hillyfields-juniors,Hilly Fields junior parkrun,Hilly Fields juniors,,97,2,Hilly Fields park,51.459916,-0.023945
362,ebotse,Ebotse parkrun,Ebotse,,85,1,Ebotse Golf and Country Estate,-26.146747,28.352306
363,gadebridge,Gadebridge parkrun,Gadebridge,,97,1,Gadebridge Park,51.758909,-0.473542
364,ginninderra,Ginninderra parkrun,Ginninderra,,3,1,John Knight Memorial Park,-35.234051,149.073486
365,coomera,Coomera parkrun,Coomera,,3,1,Tallowwood Park,-27.885247,153.281709
366,netleyabbey,Netley Abbey parkrun,Netley Abbey,,97,1,Royal Victoria Country Park,50.865345,-1.334453
367,prudhoeriverside-juniors,Prudhoe Riverside junior parkrun,Prudhoe Riverside juniors,Prudhoe Riverside junior parkrun,97,2,Tyne Riverside Country Park,54.96663,-1.865981
368,pinehill-juniors,Pinehill junior parkrun,Pinehill juniors,Pinehill junior parkrun,97,2,Pinehill Park,51.948308,-0.264145
369,nahoonpoint,Nahoon Point parkrun,Nahoon Point,,85,1,Nahoon Point Nature Reserve,-32.988135,27.949644
370,marple,Marple parkrun,Marple,,97,1,"Brabyns Park, Stockport",53.404476,-2.056509
371,portrush,Portrush parkrun,Portrush,,97,1,"East Strand Beach, Portrush",55.204638,-6.648788
372,graves,Graves parkrun,Graves,,97,1,"Graves Park, Sheffield",53.338906,-1.464657
373,malahide,Malahide parkrun,Malahide,,42,1,Malahide Castle grounds,53.444487,-6.162729
374,clonakilty,Clonakilty parkrun,Clonakilty,,42,1,The Show Grounds,51.617636,-8.89884
375,wallace,"Wallace parkrun, Lisburn",Wallace,,97,1,Wallace Park,54.516511,-6.036816
377,tilgate,Tilgate parkrun,Tilgate,,97,1,"Tilgate Park, Crawley",51.097,-0.175623
378,beckton,Beckton parkrun,Beckton,,97,1,Beckton District Park South,51.51176,0.046542
379,brynbach,Bryn Bach parkrun,Bryn Bach,,97,1,"Parc Bryn Bach, Tredegar",51.781621,-3.269548
380,livonia,Livonia parkrun,Livonia,,98,1,"Bicentennial Park, Livonia, MI, USA",42.429645,-83.395811
381,reigatepriory-juniors,Reigate Priory junior parkrun,Reigate Priory juniors,Reigate Priory junior parkrun,97,2,Reigate Priory Park,51.234222,-0.207922
382,burnley,Burnley parkrun,Burnley,,97,1,"Towneley Park, Burnley",53.77834,-2.221555
383,rondeboschcommon,Rondebosch Common parkrun,Rondebosch Common,,85,1,Rondebosch Common,-33.959376,18.480871
384,blackhill,Blackhill parkrun,Blackhill,,97,1,Blackhill and Consett Heritage Park,54.858315,-1.842366
385,riverside,Riverside parkrun,Riverside,,97,1,"Riverside Park, Chester-le-Street",54.853983,-1.563277
386,citypark,"Citypark parkrun, Craigavon",Citypark,,97,1,"Citypark Park, Craigavon",54.451093,-6.386002
387,dewsbury,Dewsbury parkrun,Dewsbury,,97,1,"Crow Nest Park, Dewsbury",53.688218,-1.646275
389,gladstone,Gladstone parkrun,Gladstone,,97,1,"Gladstone Park, London",51.556982,-0.228223
390,crane,Crane Park parkrun,Crane Park,,97,1,"Crane Park, Twickenham",51.441168,-0.372075
391,hillyfields,Hilly Fields parkrun,Hilly Fields,,97,1,Hilly Fields,51.460143,-0.025019
392,burgess,Burgess parkrun,Burgess,,97,1,Burgess Park,51.484536,-0.081024
393,teesbarrage,Tees Barrage parkrun,Tees Barrage,,97,1,"Tees Barrage, Middlesbrough",54.564846,-1.287396
394,stewart,"Stewart parkrun, Middlesbrough",Stewart,,97,1,"Stewart Park, Middlesbrough",54.53809,-1.203561
395,balyangsanctuary,Balyang Sanctuary parkrun,Balyang Sanctuary,,3,1,Balyang Sanctuary,-38.166457,144.331179
396,parramatta,Parramatta parkrun,Parramatta,,3,1,George Kendell Riverside Park,-33.819767,151.065488
397,claisebrookcove,Claisebrook Cove parkrun,Claisebrook Cove,,3,1,Claisebrook Cove,-31.950868,115.881884
398,darlingtonsouthpark,Darlington South Park parkrun,Darlington South Park,,97,1,South Park,54.51484,-1.560531
399,anacostia,Anacostia parkrun,Anacostia,,98,1,Anacostia Park,38.868085,-76.995023
400,lodz,parkrun Łódź,Łódź,parkrun Łódź,74,1,"Park Ks J. Poniatowskiego, Łódź",51.764861,19.411665
401,parys,Parys parkrun,Parys,,85,1,Mimosa Gardens,-26.901409,27.447946
402,poznan,parkrun Poznań,Poznań,parkrun Poznań,74,1,"Park Cytadela, Poznań",52.418883,16.933289
403,orpington,Orpington parkrun,Orpington,,97,1,Goddington Park,51.365283,0.117224
404,collegepark,College Park parkrun,College Park,,98,1,College Park,38.999103,-76.932737
405,savillgarden-juniors,Savill Garden junior parkrun,Savill Garden juniors,,97,2,"The Savill Garden, Windsor Great Park",51.429022,-0.595936
406,barking,Barking parkrun,Barking,,97,1,Barking Park,51.545894,0.087312
407,aliceholt,Alice Holt parkrun,Alice Holt,,97,1,Alice Holt Forest,51.168607,-0.83814
410,peterpan,Peter Pan parkrun,Peter Pan,,97,1,Peter Pan Park,53.73833,-0.402181
411,southshields,South Shields parkrun,South Shields,,97,1,South Shields,54.995687,-1.408052
413,goole,Goole parkrun,Goole,,97,1,West Park,53.710492,-0.891098
414,rushcliffe,Rushcliffe parkrun,Rushcliffe,,97,1,Rushcliffe Country Park,52.882497,-1.149104
415,burnage,Burnage parkrun,Burnage,,97,1,"Varley Park, Stockport SK4 3EA",53.407152,-2.209185
416,helix-juniors,Helix junior parkrun,Helix juniors,,97,2,Helix Park,56.008708,-3.757796
417,wynnum,Wynnum parkrun,Wynnum,,3,1,"Wynnum Manly Foreshore, QLD",-27.442933,153.177898
418,lesdougnes,"parkrun des Dougnes, Cubnezais",Les Dougnes,,31,1,Espace de Loisirs des Dougnes,45.065926,-0.42901
419,curlcurl,Curl Curl parkrun,Curl Curl,,3,1,John Fisher Park,-33.766483,151.282339
420,cornwall,Cornwall parkrun,Cornwall Park,,65,1,"Cornwall Park, Auckland, New Zealand",-36.895495,174.789414
421,wotton,Wotton parkrun,Wotton,,97,1,Wotton Community Parc,51.633443,-2.369117
422,homewood,Homewood parkrun,Homewood,,97,1,Ottershaw Memorial Fields,51.366808,-0.539078
423,aberystwyth,Aberystwyth parkrun,Aberystwyth,,97,1,Plascrug Park,52.414546,-4.080401
424,northlakes,North Lakes parkrun,North Lakes,,3,1,"Eden Lake, North Lakes, Queensland",-27.23669,153.020729
425,prestonpark-juniors,"Preston Park junior parkrun, Brighton",Preston Park juniors,,97,2,Preston Park,50.84122,-0.147668
426,uvongo,Uvongo parkrun,Uvongo,,85,1,Uvongo,-30.820719,30.405028
427,kingscliff,Kingscliff parkrun,Kingscliff,,3,1,"Bells Boulevard, SALT Village, Kingsclif",-28.294414,153.574973
428,kawana,Kawana parkrun,Kawana,,3,1,Kawana Surf Club,-26.702046,153.135488
429,riverway,Riverway parkrun,Riverway,,3,1,Riverway Lagoon,-19.320306,146.73018
430,woodley,Woodley parkrun,Woodley,,97,1,Woodford Park,51.45418,-0.903669
431,northbeach,North Beach parkrun,North Beach,,85,1,"North Beach, Durban Promenade",-29.83607,31.036634
432,sheringham,Sheringham parkrun,Sheringham,,97,1,Sheringham Park,52.928775,1.180601
433,sandgate,Sandgate parkrun,Sandgate,,3,1,Arthur Davis Park,-27.311291,153.068234
434,southbank,South Bank parkrun,South Bank,,3,1,South Bank Parklands,-27.478872,153.023962
435,bigbay,Big Bay parkrun,Big Bay,,85,1,Big Bay,-33.792113,18.456388
436,kesgrave-juniors,Kesgrave junior parkrun,Kesgrave juniors,Kesgrave junior parkrun,97,2,Kesgrave,52.058171,1.256579
437,dusi,Dusi parkrun,Dusi,,85,1,Pietermaritzburg,-29.611438,30.380781
438,clermontwaterfront,Clermont Waterfront parkrun,Clermont Waterfront,,98,1,Clermont,28.557404,-81.770446
439,deeprun,Deep Run parkrun,Deep Run,,98,1,Deep Run Park,37.624069,-77.586806
440,uptoncourt,Upton Court parkrun,Upton Court,,97,1,Upton Court Park,51.49616,-0.577525
441,chelmsfordcentral,Chelmsford Central parkrun,Chelmsford Central,,97,1,Central Park,51.732577,0.464945
442,harrowlodge,Harrow Lodge parkrun,Harrow Lodge,,97,1,Harrow Lodge Park,51.555606,0.200715
443,brockenhurst,Brockenhurst parkrun,Brockenhurst,,97,1,Brockenhurst College,50.821804,-1.568052
444,linwood,Linwood parkrun,Linwood,,97,1,ON-X Linwood,55.854033,-4.505078
445,wimpoleestate,Wimpole Estate parkrun,Wimpole Estate,,97,1,Wimpole Estate,52.140442,-0.047207
446,risdonbrook,Risdon Brook parkrun,Risdon Brook,,3,1,Risdon Brook Park,-42.804471,147.332352
447,torrens,Torrens parkrun,Torrens,,3,1,Torrens Lake Weir,-34.917551,138.587444
448,delamere,Delamere parkrun,Delamere,,97,1,Delamere Forest,53.239537,-2.68796
449,cheltenham,Cheltenham parkrun,Cheltenham,,97,1,Pittville Park,51.911754,-2.07824
450,aylesbury,Aylesbury parkrun,Aylesbury,,97,1,Opposite the Quarrendeon & Meadowcroft C,51.83162,-0.838394
451,newent,"Newent parkrun, Forest of Dean",Newent,,97,1,Newent Community School/Forest Leisure C,51.926515,-2.410056
452,launceston,Launceston parkrun,Launceston,,3,1,"Inveresk Precinct, Launceston, Tasmania",-41.425512,147.14088
453,hackworth,Hackworth parkrun,Hackworth,,97,1,Hackworth Park,54.628071,-1.644945
454,bracknell-juniors,Bracknell junior parkrun,Bracknell juniors,Bracknell junior parkrun,97,2,Great Hollands Recreation Ground,51.389493,-0.778067
457,hartlepool,Hartlepool parkrun,Hartlepool,,97,1,Hartlepool,54.686937,-1.195128
458,modderfonteinreserve,Modderfontein Reserve parkrun,Modderfontein Reserve,,85,1,Modderfontein Reserve,-26.068971,28.138043
459,sunriseonsea,Sunrise-on-Sea parkrun,Sunrise-on-Sea,,85,1,Sunrise-on-Sea,-32.915013,28.038654
460,telford,Telford parkrun,Telford,,97,1,Telford Town Park,52.67123,-2.447934
461,walthamstow,Walthamstow parkrun,Walthamstow,,97,1,Highams Park,51.602666,-0.007854
462,huntingdon,Huntingdon parkrun,Huntingdon,,97,1,Huntingdon,52.330061,-0.211551
463,rockingham,Rockingham parkrun,Rockingham,,3,1,Rockingham,-32.275296,115.728757
464,brandoncountrypark,Brandon Country Park parkrun,Brandon Country Park,,97,1,Brandon Country Park,52.436339,0.625877
465,thetford,Thetford parkrun,Thetford,,97,1,Abbey Meadows,52.4156,0.743766
466,llynllechowain,Llyn Llech Owain parkrun,Llyn Llech Owain,,97,1,Llyn Llech Owain,51.812913,-4.080563
467,templenewsam,Temple Newsam parkrun,Temple Newsam,,97,1,Temple Newsam Estate,53.784781,-1.456461
468,southwark,Southwark parkrun,Southwark,,97,1,Southwark Park,51.494242,-0.053151
470,strathmartine-juniors,Strathmartine junior parkrun,Strathmartine juniors,Strathmartine junior parkrun,97,2,Strathmartine,56.491386,-3.003733
471,darwin,Darwin parkrun,Darwin,,3,1,Bicentennial Park,-12.466925,130.840725
472,warszawapraga,parkrun Warszawa-Praga,Warszawa-Praga,parkrun Warszawa-Praga,74,1,"Park Skaryszewski, Warszawa",52.241493,21.050963
473,crichton,Crichton parkrun,Crichton,,97,1,The Crichton,55.050773,-3.594589
474,krakow,parkrun Kraków,Kraków,parkrun Kraków,74,1,"Krakowskie Błonia, Krakow",50.059123,19.922504
475,lakemac,Lake Mac parkrun,Lake Mac,,3,1,Lake Macquarie,-32.972596,151.612487
476,varsitylakes,Varsity Lakes parkrun,Varsity Lakes,,3,1,Varsity Lakes,-28.084627,153.410554
477,scunthorpe,Scunthorpe parkrun,Scunthorpe,,97,1,Central Park,53.581755,-0.656476
478,rotherham,Rotherham parkrun,Rotherham,,97,1,Rotherham,53.430538,-1.343218
479,rothervalley,Rother Valley parkrun,Rother Valley,,97,1,Rother Valley Country Park,53.341508,-1.320226
480,marlay,Marlay parkrun,Marlay,,42,1,Marlay Park,53.27689,-6.271777
481,forestrec,Forest Rec parkrun,Forest Rec,,97,1,"Forest Recreation Gound, Nottingham",52.965352,-1.159766
482,enniskillen,Enniskillen parkrun,Enniskillen,,97,1,Enniskillen,54.343834,-7.642293
483,crossflatts,Cross Flatts parkrun,Cross Flatts,,97,1,Cross Flatts Park,53.775754,-1.55757
484,hillsborough,Hillsborough parkrun,Hillsborough,,97,1,Hillsborough Park,53.408457,-1.501973
485,kingsburywater,Kingsbury Water parkrun,Kingsbury Water,,97,1,Kingsbury Water Park,52.561983,-1.698718
488,fingalbay,Fingal Bay parkrun,Fingal Bay,,3,1,Fingal Bay,-32.742887,152.170644
489,canningriver,Canning River parkrun,Canning River,,3,1,Canning River Regional Park,-32.020912,115.92266
490,hawkwell-juniors,Hawkwell junior parkrun,Hawkwell juniors,Hawkwell junior parkrun,97,2,Clements Hall Recreation Ground,51.595524,0.673991
491,ganavansands,Ganavan Sands parkrun,Ganavan Sands,,97,1,Ganavan,56.437766,-5.469021
492,shepparton,Shepparton parkrun,Shepparton,,3,1,Victoria Park Lake,-36.390858,145.396146
493,toowoomba,Toowoomba parkrun,Toowoomba,,3,1,Queens Park,-27.56019,151.963926
496,mitchelton,Mitchelton parkrun,Mitchelton,,3,1,Teralba Park,-27.404423,152.979298
497,warrnambool,Warrnambool parkrun,Warrnambool,,3,1,Warrnambool,-38.392862,142.47937
499,noosa,Noosa parkrun,Noosa,,3,1,Noosaville,-26.40872,153.030388
501,tuggeranong,Tuggeranong parkrun,Tuggeranong,,3,1,Lake Tuggeranong,-35.410284,149.064989
502,brighouse-juniors,Brighouse junior parkrun,Brighouse juniors,Brighouse junior parkrun,97,2,Wellholme Park,53.70627,-1.776459
503,bunbury,Bunbury parkrun,Bunbury,,3,1,Big Swamp Wildlife Park,-33.342966,115.633228
504,loganriver,Logan River parkrun,Logan River,,3,1,Logan River parklands,-27.698831,153.192024
506,mountbarker,Mount Barker parkrun,Mount Barker,,3,1,Mount Barker Homemaker Centre,-35.069655,138.867869
507,woodlands,Woodlands parkrun,Woodlands,,85,1,The Woodlands Office Park,-26.063356,28.088179
508,aveley,Aveley parkrun,Aveley,,3,1,Central Park,-31.789954,115.988052
509,lakejoondalup,Lake Joondalup parkrun,Lake Joondalup,,3,1,Neil Hawkins Park,-31.744138,115.777144
510,pontypridd,Pontypridd parkrun,Pontypridd,,97,1,Ynysangharad War Memorial Park,51.602009,-3.339028
511,porthcawl,Porthcawl parkrun,Porthcawl,,97,1,Porthcawl Seafront,51.476331,-3.705976
512,sandonpoint,Sandon Point parkrun,Sandon Point,,3,1,Sandon Point,-34.333372,150.924554
513,northshore,North Shore parkrun,North Shore,,3,1,North Shore,-19.252326,146.70074
514,northwollongong,North Wollongong parkrun,North Wollongong,,3,1,Stuart Park,-34.413116,150.901723
515,ipswichqld,Ipswich QLD parkrun,Ipswich QLD,,3,1,Bill Patterson Oval,-27.625421,152.764292
518,didcot,Didcot parkrun,Didcot,,97,1,Ladygrove Park,51.612792,-1.239
519,clair,Clair parkrun,Clair,,97,1,Clair Park,51.004322,-0.100143
520,margate,Margate parkrun,Margate,,97,1,Margate,51.39207,1.403997
521,pegwellbay,Pegwell Bay parkrun,Pegwell Bay,,97,1,Pegwell Bay,51.320957,1.361446
522,chippingsodbury,Chipping Sodbury parkrun,Chipping Sodbury,,97,1,The Ridings,51.544366,-2.397165
523,durhamnc,Durham NC parkrun,Durham NC,,98,1,Southern Boundaries Park,35.955931,-78.926382
524,newbigginbythesea,Newbiggin-by-the-Sea parkrun,Newbiggin-by-the-Sea,,97,1,Newbiggin Promenade,55.185215,-1.505386
525,prestonpark,"Preston Park parkrun, Brighton",Preston Park,,97,1,Preston Park,50.841557,-0.148616
527,eastgrinstead,East Grinstead parkrun,East Grinstead,,97,1,East Court,51.129008,0.001373
528,batemansbay,Batemans Bay parkrun,Batemans Bay,,3,1,Batemans Bay,-35.712112,150.185995
529,gungahlin,Gungahlin parkrun,Gungahlin,,3,1,Yerrabi Pond,-35.178952,149.129405
530,barry-juniors,Barry junior parkrun,Barry juniors,Barry junior parkrun,97,2,Romilly Park,51.393485,-3.291377
533,tamworth,Tamworth parkrun,Tamworth,,3,1,Tamworth,-31.099559,150.936905
534,airliebeach,Airlie Beach parkrun,Airlie Beach,,3,1,Coral Sea Marina,-20.267153,148.711122
535,shornewoods,Shorne Woods parkrun,Shorne Woods,,97,1,Shorne Woods Country Park,51.404426,0.418618
537,musacookstown,MUSA Cookstown parkrun,MUSA Cookstown,,97,1,Mid Ulster Sports Arena,54.615093,-6.735656
538,wynyardforeshore,Wynyard Foreshore parkrun,Wynyard Foreshore,,3,1,East Wynyard Foreshore,-40.98771,145.738245
540,tollcross,"Tollcross parkrun, Glasgow",Tollcross,,97,1,Tollcross,55.847494,-4.179461
541,kalgoorlieboulder,Kalgoorlie-Boulder parkrun,Kalgoorlie-Boulder,,3,1,Karlkurla Bushland Park,-30.718868,121.456625
542,gatton,Gatton parkrun,Gatton,,3,1,Lake Apex,-27.570426,152.270476
543,wroclaw,parkrun Wrocław,Wrocław,parkrun Wrocław,74,1,"Jaz Opatowicki, Wroclaw",51.134576,17.039328
544,cairns,Cairns parkrun,Cairns,,3,1,Cairns Esplanade,-16.904574,145.763211
545,highlands,Highlands parkrun,Highlands,,3,1,Stocklandâ€™s Highlands community,-37.59106,144.903713
546,devonport,Devonport parkrun,Devonport,,3,1,Mersey Bluff,-41.162847,146.356321
547,woodley-juniors,Woodley junior parkrun,Woodley juniors,,97,2,Woodford Park,51.454829,-0.903089
549,penallta,Penallta parkrun,Penallta,,97,1,Penallta House,51.644889,-3.245679
550,cleveland,Cleveland parkrun,Cleveland,,3,1,Cleveland,-27.539355,153.274298
551,queenelizabeth,Queen Elizabeth parkrun,Queen Elizabeth,,97,1,Queen Elizabeth Country Park,50.956372,-0.978384
553,gladstoneqld,Gladstone QLD parkrun,Gladstone QLD,,3,1,Lions Park,-23.871873,151.238458
554,shongweni,Shongweni parkrun,Shongweni,,85,1,Durban Shongweni Club,-29.798608,30.743222
555,root44,Root 44 parkrun,Root 44,,85,1,Audacia Wine Farm,-33.995056,18.828764
556,castledemense,Castle Demense parkrun,Castle Demense,,42,1,The Castle Demense,51.904698,-8.962054
558,rocksriverside,Rocks Riverside parkrun,Rocks Riverside,,3,1,Rocks Riverside Park,-27.542633,152.959235
559,nulkaba,Nulkaba parkrun,Nulkaba,,3,1,St Phillips Christian College,-32.794952,151.352856
564,horsham-juniors,Horsham junior parkrun,Horsham juniors,,97,2,Horsham Park,51.066568,-0.32753
565,hastingsforeshore,Hastings Foreshore parkrun,Hastings Foreshore,,3,1,Hastings Foreshore,-38.307311,145.196651
567,clactonseafront,Clacton Seafront parkrun,Clacton Seafront,,97,1,Clacton Seafront,51.781574,1.142974
568,kiddsbeach,Kidds Beach parkrun,Kidds Beach,,85,1,Upper Kidds Beach,-33.139412,27.680483
569,omagh,Omagh parkrun,Omagh,,97,1,Omagh,54.602837,-7.296222
570,newark,Newark parkrun,Newark,,97,1,Sconce and Devon Park,53.070031,-0.81905
571,bunyaville,Bunyaville parkrun,Bunyaville,,3,1,James Drysdale Recreational Conservation Centre,-27.377306,152.949138
572,clumberpark,Clumber Park parkrun,Clumber Park,,97,1,Clumber Park,53.268022,-1.065717
573,barrycurtis,Barry Curtis parkrun,Barry Curtis,,65,1,Barry Curtis Park,-36.9597,174.914382
575,workington,Workington parkrun,Workington,,97,1,Workington Leisure Centre,54.647169,-3.539767
578,griffeen,Griffeen parkrun,Griffeen,,42,1,Griffeen Valley Park,53.343685,-6.445112
579,inverell,Inverell parkrun,Inverell,,3,1,Campbell Park,-29.77388,151.10897
580,seaton,Seaton parkrun,Seaton,,97,1,Seaton Esplanade,50.703349,-3.072064
581,canonspark,Canons Park parkrun,Canons Park,,97,1,Canons Park,51.612291,-0.296184
582,greenpoint,Greenpoint parkrun,Greenpoint,,85,1,Greenpoint Park,-33.905997,18.407056
583,porirua,Porirua parkrun,Porirua,,65,1,Bothamley Park,-41.134246,174.854161
584,ormeau,Ormeau parkrun,Ormeau,,97,1,Ormeau Park,54.588374,-5.914786
585,antrim,Antrim parkrun,Antrim,,97,1,Loughshore Park,54.717078,-6.238818
587,mosman,Mosman parkrun,Mosman,,3,1,Spit West Reserve,-33.806252,151.245989
588,armidale,Armidale parkrun,Armidale,,3,1,SportUNE,-30.491998,151.639419
593,diamondcreek,Diamond Creek parkrun,Diamond Creek,,3,1,Marngrook Oval,-37.673576,145.153249
594,pehobiebeach,PE Hobie Beach parkrun,PE Hobie Beach,,85,1,Hobie Beach,-33.980149,25.657368
595,stfrancis,St Francis parkrun,St Francis,,85,1,St Francis Links,-34.162285,24.815401
596,bodmin-juniors,Bodmin junior parkrun,Bodmin juniors,Bodmin junior parkrun,97,2,Hillside Park,50.474313,-4.73101
597,warwick,Warwick parkrun,Warwick,,3,1,Condamine River,-28.209605,152.038465
598,oceangrove,Ocean Grove parkrun,Ocean Grove,,3,1,Barwon Estuary Picnic Area,-38.267313,144.512783
599,merimbula,Merimbula parkrun,Merimbula,,3,1,Merimbula,-36.895978,149.910936
600,szczecinek,parkrun Szczecinek,Szczecinek,parkrun Szczecinek,74,1,"Park Miejski, Szczecinek",53.700942,16.693575
601,renton,Renton parkrun,Renton,,98,1,Renton,47.475931,-122.180865
602,zary,parkrun Żary,Żary,parkrun Żary,74,1,"Zielony Las, Żary",51.616609,15.135033
604,bargara,Bargara parkrun,Bargara,,3,1,Nielson Park,-24.806914,152.456905
606,bathurst,Bathurst parkrun,Bathurst,,3,1,Bicentennial Park,-33.414176,149.586917
608,portmacquarie,Port Macquarie parkrun,Port Macquarie,,3,1,Port Macquarie,-31.42754,152.916551
610,blackbutt,Blackbutt parkrun,Blackbutt,,3,1,Richley Recreation Reserve,-32.932526,151.699755
612,cuerdenvalley,Cuerden Valley parkrun,Cuerden Valley,,97,1,Cuerden Valley Park,53.708614,-2.659442
613,sheffieldcastle,Sheffield Castle parkrun,Sheffield Castle,,97,1,Manor Fields Park,53.366782,-1.436827
614,emerald,Emerald parkrun,Emerald,,3,1,Botanical Gardens,-23.531435,148.164253
615,stannes,St Anne’s parkrun,St Anne’s,,42,1,St Anne’s Park,53.371179,-6.174574
617,berwicksprings,Berwick Springs parkrun,Berwick Springs,,3,1,Berwick Springs Promenade,-38.062069,145.322932
619,pointcook,Point Cook parkrun,Point Cook,,3,1,Arndell Park Community Centre,-37.862086,144.72952
620,osterley,Osterley parkrun,Osterley,,97,1,Osterley Park,51.489403,-0.349889
621,skipton,Skipton parkrun,Skipton,,97,1,Aireville Park,53.961331,-2.030004
622,leszno,parkrun Leszno,Leszno,parkrun Leszno,74,1,"Nadleśnictwo Karczma Borowa, Leszno",51.851061,16.619139
625,westport,Westport parkrun,Westport,,42,1,Westport,53.797982,-9.519267
628,shrewsbury,Shrewsbury parkrun,Shrewsbury,,97,1,The Quarry,52.706942,-2.75921
629,yeovilmontacute,Yeovil Montacute parkrun,Yeovil Montacute,,97,1,Montacute House,50.951485,-2.712979
631,sandallpark,Sandall Park parkrun,Sandall Park,,97,1,Sandall Park,53.544969,-1.089474
632,weymouth,Weymouth parkrun,Weymouth,,97,1,Lodmoor County Park,50.626728,-2.447398
633,corby,Corby parkrun,Corby,,97,1,West Glebe Recreation Ground,52.493879,-0.691774
634,rockhampton,Rockhampton parkrun,Rockhampton,,3,1,Botanic Gardens,-23.400579,150.491432
635,flattslane,Flatts Lane parkrun,Flatts Lane,,97,1,Flatts Lane Woodland Country Park,54.543872,-1.151741
636,clarecastle,Clare Castle parkrun,Clare Castle,,97,1,Clare Castle Country Park,52.076428,0.581882
637,dalby,Dalby parkrun,Dalby,,3,1,Dalby,-27.188036,151.262339
638,gibside,Gibside parkrun,Gibside,,97,1,Gibside,54.920406,-1.731248
639,ballarat,Ballarat parkrun,Ballarat,,3,1,Victoria Park,-37.556649,143.820637
640,haverfordwest,Haverfordwest parkrun,Haverfordwest,,97,1,Haverfordwest Crickert Club,51.797163,-4.992836
641,victoria,"Victoria parkrun, Glasgow",Victoria,,97,1,Victoria Park,55.877504,-4.332347
643,westerfolds,Westerfolds parkrun,Westerfolds,,3,1,Westerfolds Park,-37.746092,145.133986
644,mudgeeraba,Mudgeeraba parkrun,Mudgeeraba,,3,1,Darcy Doyle Park,-28.086682,153.364098
646,castlewellan,Castlewellan parkrun,Castlewellan,,97,1,Castlewellan Forest Park,54.262147,-5.95386
647,hyde-juniors,Hyde junior parkrun,Hyde juniors,Hyde junior parkrun,97,2,Hyde Park,53.458379,-2.07756
648,alburywodonga,Albury Wodonga parkrun,Albury Wodonga,,3,1,Hovell Tree Park,-36.083452,146.906532
649,dunedin,Dunedin parkrun,Dunedin,,65,1,Dunedin Botanic Garden,-45.857088,170.519225
650,hamiltonlake,Hamilton Lake parkrun,Hamilton Lake,,65,1,Hamilton Lake,-37.799693,175.272381
651,millwater,Millwater parkrun,Millwater,,65,1,Millwater Parkway,-36.602838,174.679409
654,brentwood,Brentwood parkrun,Brentwood,,97,1,Weald Country Park,51.622582,0.266879
655,catton,Catton parkrun,Catton,,97,1,Catton Park,52.656696,1.295507
656,hazlehead,"Hazlehead parkrun, Aberdeen",Hazlehead,,97,1,Hazlehead Park,57.141371,-2.175647
657,mackay,Mackay parkrun,Mackay,,3,1,Mackay Botanic Gardens,-21.152238,149.155797
658,armagh,Armagh parkrun,Armagh,,97,1,Palace Demesne Public Park,54.339812,-6.652951
659,larne,Larne parkrun,Larne,,97,1,Carnfunnock Country Park,54.88843,-5.843595
660,alness,Alness parkrun,Alness,,97,1,Crawl Park,57.694306,-4.256669
661,roma,Roma parkrun,Roma,,3,1,Roma,-26.567166,148.789054
663,maitland,Maitland parkrun,Maitland,,3,1,Walka Recreation & Wildlife Reserve,-32.714435,151.552845
665,torquay,Torquay parkrun,Torquay,,3,1,Fishermans Beach,-38.327281,144.326903
666,lakesentrance,Lakes Entrance parkrun,Lakes Entrance,,3,1,"Lakes Entrance Rotunda, Memorial Park",-37.879944,147.994104
668,herveybay,Hervey Bay parkrun,Hervey Bay,,3,1,Lions Park,-25.283163,152.90367
669,bluegumhills,Blue Gum Hills parkrun,Blue Gum Hills,,3,1,Blue Gum Hills Regional Park,-32.884131,151.620206
670,minnippi,Minnippi parkrun,Minnippi,,3,1,Meadowfields Road,-27.49331,153.118679
672,mountgambier,Mount Gambier parkrun,Mount Gambier,,3,1,Blue Lake Reserve,-37.84289,140.777854
673,eagan,Eagan parkrun,Eagan,,98,1,Thomas Lake Park,44.797663,-93.175378
674,fulhampalace,Fulham Palace parkrun,Fulham Palace,,97,1,Bishops Park,51.472465,-0.218493
678,fishhoek,Fish Hoek parkrun,Fish Hoek,,85,1,Sun Valley,-34.120577,18.398581
679,voortrekkermonument,"Voortrekker Monument parkrun, Pretoria",Voortrekker Monument,,85,1,Voortrekker Monument Heritage Site,-25.772619,28.179573
680,greatlines,"Great Lines parkrun, Medway",Great Lines,,97,1,Great Lines Heritage ParkPark,51.388527,0.541334
681,longrunmeadow,Longrun Meadow parkrun,Longrun Meadow,,97,1,Longrun Meadow Park,51.018755,-3.114989
682,northalafields,Northala Fields parkrun,Northala Fields,,97,1,Northala Fields Park,51.541272,-0.376711
683,tonbridge,Tonbridge parkrun,Tonbridge,,97,1,Juddians Rugby Club,51.197605,0.270174
685,calamvale,Calamvale parkrun,Calamvale,,3,1,Calamvale District Park,-27.620775,153.039287
689,potchefstroom,Potchefstroom parkrun,Potchefstroom,,85,1,Corner of Retief and Govan Mbeki Avenue,-26.707551,27.104892
691,stanthorpe,Stanthorpe parkrun,Stanthorpe,,3,1,Gleeson Park,-28.65183,151.931781
693,halls,"Halls parkrun, Nelspruit",Halls,,85,1,Halls Gateway,-25.456949,30.937114
696,blickling,Blickling parkrun,Blickling,,97,1,Blickling Park,52.813653,1.221671
697,pontypool,Pontypool parkrun,Pontypool,,97,1,Pontypool Park,51.699213,-3.028573
699,lillydalelake,Lillydale Lake parkrun,Lillydale Lake,,3,1,Lilydale Lake,-37.766218,145.357071
701,pomphreyhill,Pomphrey Hill parkrun,Pomphrey Hill,,97,1,Pomphrey Hill Playing Fields,51.479321,-2.47805
704,roundhay-juniors,Roundhay junior parkrun,Roundhay juniors,,97,2,Roundhay Park,53.836822,-1.503689
705,southampton-juniors,Southampton junior parkrun,Southampton juniors,,97,2,Riverside Park,50.933059,-1.373988
706,goldenbeach,Golden Beach parkrun,Golden Beach,,3,1,Woorim Park,-26.829014,153.120795
708,tauranga,Tauranga parkrun,Tauranga,,65,1,Kopurererua Valley Reserve,-37.703937,176.14702
709,george,George parkrun,George,,85,1,Botanical Gardens,-33.945385,22.464767
710,knysna,Knysna parkrun,Knysna,,85,1,Knysna,-34.045911,23.06934
711,bryanston,Bryanston parkrun,Bryanston,,85,1,Bryanston,-26.060239,28.04727
714,rietvlei,"Rietvlei parkrun, JHB South",Rietvlei,,85,1,"Rietvlei Farm, Alberton",-26.31107,28.079971
719,basingstoke-juniors,Basingstoke junior parkrun,Basingstoke juniors,Basingstoke junior parkrun,97,2,Stratton Park,51.252197,-1.128675
720,burystedmunds-juniors,Bury St Edmunds junior parkrun,Bury St Edmunds juniors,Bury St Edmunds junior parkrun,97,2,Bury St Edmunds,52.244457,0.734698
721,polokwane,Polokwane parkrun,Polokwane,,85,1,Polokwane,-23.885076,29.457428
723,kolomenskoe,parkrun Kolomenskoe,Kolomenskoe,parkrun Коломенское,79,1,"Kolomenskoe park, Moscow",55.669668,37.675381
724,wimbledonpark-juniors,Wimbledon Park junior parkrun,Wimbledon Park juniors,,97,2,Wimbledon Park,51.440582,-0.206632
727,ruchill,Ruchill parkrun,Ruchill,,97,1,Ruchill Park,55.884538,-4.276162
729,lakeview,Lakeview parkrun,Lakeview,,3,1,The Shores Way,-33.030093,151.642302
732,singleton,Singleton parkrun,Singleton,,3,1,Rose Point Park,-32.565281,151.160776
733,yamba,Yamba parkrun,Yamba,,3,1,Ford Park,-29.435742,153.357271
734,rushcliffe-juniors,Rushcliffe junior parkrun,Rushcliffe juniors,,97,2,Rushcliffe County Park,52.88217,-1.14978
736,cooksriver,Cooks River parkrun,Cooks River,,3,1,Saint Mary Mackillop Reserve,-33.913708,151.116857
738,aylestone-juniors,Aylestone junior parkrun,Aylestone juniors,,97,2,Aylestone Recreation Ground,52.609737,-1.134248
739,quinnsrocks,Quinns Rocks parkrun,Quinns Rocks,,3,1,Quinns Rocks,-31.679025,115.69588
740,ardgillan,Ardgillan parkrun,Ardgillan,,42,1,Ardgillan Castle and Demesne,53.586088,-6.161152
741,naas,Naas parkrun,Naas,,42,1,Naas Racecourse,53.220327,-6.644948
742,carrickfergus,Carrickfergus parkrun,Carrickfergus,,97,1,Amphitheatre Wellness Centre,54.719992,-5.805285
745,coffsharbour,Coffs Harbour parkrun,Coffs Harbour,,3,1,Park Beach Reserve,-30.295687,153.1376
748,fountainsabbey,Fountains Abbey parkrun,Fountains Abbey,,97,1,Fountains Abbey,54.110196,-1.581983
750,manjimup,Manjimup parkrun,Manjimup,,3,1,Manjimup Homemaker Centre,-34.227785,116.179615
751,campbelltown,Campbelltown parkrun,Campbelltown,,3,1,Hurricane Drive,-34.018301,150.814819
753,sale,Sale parkrun,Sale,,3,1,Sale Botanic Gardens,-38.114103,147.078273
754,kirkcaldy,Kirkcaldy parkrun,Kirkcaldy,,97,1,Beveridge Park,56.104087,-3.169549
755,lanhydrock,Lanhydrock parkrun,Lanhydrock,,97,1,Lanhydrock House,50.441131,-4.69614
756,queanbeyan,Queanbeyan parkrun,Queanbeyan,,3,1,Queanbeyan,-35.348151,149.238801
757,pioneer,Pioneer parkrun,Pioneer,,3,1,Pioneer Park,-32.066125,116.001509
761,penrith,Penrith parkrun,Penrith,,97,1,Frenchfiel Sports Centre,54.658026,-2.720532
762,greatcornard,Great Cornard parkrun,Great Cornard,,97,1,Great Cornard Sports Centre,52.02463,0.751362
763,severnoetushino,parkrun Severnoe Tushino,Severnoe Tushino,parkrun Северное Тушино,79,1,"Severnoe Tushino park, Moscow",55.853899,37.453423
765,risingsun,Rising Sun parkrun,Rising Sun,,97,1,The Rising Sun Country Park,55.01998,-1.532028
768,harrowlodge-juniors,Harrow Lodge junior parkrun,Harrow Lodge juniors,,97,2,Harrow Lodge Park,51.555718,0.202013
769,newport-juniors,Newport junior parkrun,Newport juniors,,97,2,Tredegar House,51.562767,-3.028793
771,tamborinemountain,Tamborine Mountain parkrun,Tamborine Mountain,,3,1,Tamborine Mountain Sports Complex,-27.941377,153.193434
772,penrithlakes,Penrith Lakes parkrun,Penrith Lakes,,3,1,Sydney International Regatta Centre,-33.725922,150.685741
778,kenningtonreservoir,Kennington Reservoir parkrun,Kennington Reservoir,,3,1,Kennington Reservoir,-36.772141,144.312232
779,beeston,Beeston parkrun,Beeston,,97,1,Weirfields Recreation Ground,52.913592,-1.201737
780,bangor,"Bangor parkrun, Northern Ireland",Bangor,,97,1,Ward Park,54.660024,-5.661693
781,castlebar,Castlebar parkrun,Castlebar,,42,1,Castlebar Tennis Club,53.850327,-9.309314
782,ormskirk,Ormskirk parkrun,Ormskirk,,97,1,Edge Hill University,53.559245,-2.868097
783,lymepark,Lyme Park parkrun,Lyme Park,,97,1,Lyme Park,53.337193,-2.058402
788,peterpan-juniors,Peter Pan junior parkrun,Peter Pan juniors,Peter Pan junior parkrun,97,2,Peter Pan Park,53.738674,-0.402106
793,yeppoon,Yeppoon parkrun,Yeppoon,,3,1,Yeppoon,-23.128177,150.739086
794,upington,Upington parkrun,Upington,,85,1,Corner of Wildebees and Dwars Street,-28.444304,21.269767
795,rousehill,Rouse Hill parkrun,Rouse Hill,,3,1,Rouse Hill Regional Park,-33.679301,150.911109
797,littlestoke-juniors,Little Stoke junior parkrun,Little Stoke juniors,,97,2,Little Stoke Park,51.529479,-2.55975
798,wishart,Wishart parkrun,Wishart,,3,1,Wishart Community Park,-27.560975,153.103468
802,victorharbor,Victor Harbor parkrun,Victor Harbor,,3,1,Victor Harbor,-35.565657,138.611096
804,mofolo,Mofolo parkrun,Mofolo,,85,1,Mofolo Park,-26.243398,27.888986
805,mtpenang,Mt Penang parkrun,Mt Penang,,3,1,Mt Penang Parklands,-33.426328,151.293178
806,whiteriver,White River parkrun,White River,,85,1,Ingwenyama Conference and Sports Resort,-25.342502,31.007935
807,cottesloe,Cottesloe parkrun,Cottesloe,,3,1,Marine Parade,-32.006479,115.75182
808,mountisa,Mount Isa parkrun,Mount Isa,,3,1,Tharrapatha Way,-20.702319,139.492772
809,yarrabilba,Yarrabilba parkrun,Yarrabilba,,3,1,Darlington Parklands,-27.80288,153.10409
810,maribyrnong,Maribyrnong parkrun,Maribyrnong,,3,1,Maribyrnong,-37.770632,144.897858
813,pittsworth,Pittsworth parkrun,Pittsworth,,3,1,Pittsworth,-27.712352,151.641106
814,reigatepriory,Reigate Priory parkrun,Reigate Priory,,97,1,Priory Park,51.23435,-0.208644
821,cleethorpes,Cleethorpes parkrun,Cleethorpes,,97,1,Cleethorpes Country Park,53.541552,-0.025384
822,lawson,Lawson parkrun,Lawson,,3,1,North Lawson Park,-33.713629,150.426901
823,carineglades,Carine Glades parkrun,Carine Glades,,3,1,Carine Regional Open Space,-31.85155,115.782943
826,barkinganddagenham-juniors,Barking and Dagenham junior parkrun,Barking and Dagenham juniors,,97,2,Parsloes Park,51.544937,0.125871
827,mashishing,Mashishing parkrun,Mashishing,,85,1,Lydenburg,-25.11494,30.473021
828,keswick,Keswick parkrun,Keswick,,97,1,Keswick Railway Path,54.603863,-3.129497
829,springburn,"Springburn parkrun, Glasgow",Springburn,,97,1,Springburn Park,55.889857,-4.224823
834,chelmsford-juniors,Chelmsford junior parkrun,Chelmsford juniors,,97,2,Central Park,51.733083,0.466286
835,hamilton,Hamilton parkrun,Hamilton,,3,1,Lake Hamilton,-37.737592,142.040024
836,centrallakes,Central Lakes parkrun,Central Lakes,,3,1,Central Lakes Drive,-27.07755,152.973187
837,parke,Parke parkrun,Parke,,97,1,Parke Estate,50.59305,-3.686562
838,cieszyn,parkrun Cieszyn,Cieszyn,parkrun Cieszyn,74,1,"Park Sikory, Cieszyn",49.741202,18.629197
840,konstancinjeziorna,parkrun Konstancin-Jeziorna,Konstancin-Jeziorna,parkrun Konstancin-Jeziorna,74,1,"Scieżka Zdrowia, Konstancin Jeziorna",52.072417,21.12834
841,warszawazoliborz,parkrun Warszawa-Żoliborz,Warszawa-Żoliborz,parkrun Warszawa-Żoliborz,74,1,"Park Kępa Potocka, Warszawa",52.280382,20.990555
842,lonehill,Lonehill parkrun,Lonehill,,85,1,Lonehill Park Dam,-26.014461,28.027883
843,rushmoor,Rushmoor parkrun,Rushmoor,,97,1,Queens Avenue,51.265798,-0.755847
844,marple-juniors,Marple junior parkrun,Marple juniors,,97,2,Brabyns Park,53.408027,-2.05793
846,brockwell-juniors,Brockwell junior parkrun,Brockwell juniors,,97,2,Brockwell Park,51.452603,-0.106505
847,pakenham,Pakenham parkrun,Pakenham,,3,1,Pakenham,-38.06462,145.463839
849,capalaba,Capalaba parkrun,Capalaba,,3,1,Capalaba Regional Park,-27.521405,153.186858
850,mudgee,Mudgee parkrun,Mudgee,,3,1,Mudgee,-32.589229,149.586719
851,buckingham,Buckingham parkrun,Buckingham,,97,1,Bridge Street Skate Park,51.998987,-0.984462
852,druridgebay,Druridge Bay parkrun,Druridge Bay,,97,1,Druridge Bay Country Park,55.292765,-1.572348
855,huddersfield-juniors,Huddersfield junior parkrun,Huddersfield juniors,,97,2,Greenhead Park,53.648309,-1.799336
859,mileend-juniors,Mile End junior parkrun,Mile End juniors,,97,2,Mile End Park,51.518602,-0.034735
860,derrycity-juniors,Derry City junior parkrun,Derry City juniors,Derry City junior parkrun,97,2,Foyle Arena,55.000642,-7.304701
861,gorkypark,parkrun Gorky Park,Gorky Park,parkrun Парк Горького,79,1,Gorky Park,55.709559,37.561671
862,stavropol,parkrun Stavropol,Stavropol,parkrun Ставрополь,79,1,Stavropol,45.027659,41.93534
863,meshchersky,parkrun Meshchersky,Meshchersky,parkrun Мещерский,79,1,Meshchersky,55.667123,37.404714
866,humberbridge,Humber Bridge parkrun,Humber Bridge,,97,1,Humber Bridge Country Park,53.71723,-0.453352
869,pendle,Pendle parkrun,Pendle,,97,1,Holt House Playing Fields,53.863571,-2.18011
871,knocknacarra,Knocknacarra parkrun,Knocknacarra,,42,1,Knocknacarra Community Centre,53.265061,-9.134823
873,wangaratta,Wangaratta parkrun,Wangaratta,,3,1,Apex Park,-36.351774,146.329944
874,bognorregis,Bognor Regis parkrun,Bognor Regis,,97,1,Hotham Park,50.786913,-0.668305
878,broadbeachwaters,Broadbeach Waters parkrun,Broadbeach Waters,,3,1,Monaco Street,-28.018497,153.412292
879,cheadlehulme,Cheadle Hulme parkrun,Cheadle Hulme,,97,1,Grove Park Sports Club,53.379026,-2.210652
881,toolerncreek,Toolern Creek parkrun,Toolern Creek,,3,1,Toolern Creek Park,-37.714776,144.583229
882,peckhamrye,Peckham Rye parkrun,Peckham Rye,,97,1,Peckham Rye Park,51.455486,-0.060688
883,watergrove,"Watergrove parkrun, Rochdale",Watergrove,,97,1,Watergrove Reservoir,53.657034,-2.131777
885,tymon,Tymon parkrun,Tymon,,42,1,Tymon Park,53.295314,-6.3282
886,comber,Comber parkrun,Comber,,97,1,Parkway,54.549593,-5.740415
887,wetherby,Wetherby parkrun,Wetherby,,97,1,Wetherby Sports Association,53.925673,-1.392197
888,redcliffe,Redcliffe parkrun,Redcliffe,,3,1,"Suttons Beach Park, Marine Parade",-27.235456,153.114827
890,kalisz,parkrun Kalisz,Kalisz,parkrun Kalisz,74,1,"Wał Matejki nad Prosną, Kalisz",51.75628,18.100242
891,warszawaursynow,parkrun Warszawa-Ursynów,Warszawa-Ursynów,parkrun Warszawa-Ursynów,74,1,"Park przy Bażantarni, Warszawa",52.135633,21.063039
892,bromsgrove-juniors,Bromsgrove junior parkrun,Bromsgrove juniors,,97,2,Sanders Park,52.334159,-2.072308
893,portobello,"Portobello parkrun, Edinburgh",Portobello,,97,1,Figgate Park,55.950689,-3.122656
894,mogol,Mogol parkrun,Mogol,,85,1,Mogol Club,-23.686683,27.693497
895,oldbridge,Oldbridge parkrun,Oldbridge,,42,1,Battle of the Boyne Visitor Centre,53.723043,-6.418183
896,waterstown,Waterstown parkrun,Waterstown,,42,1,Waterstown Park,53.358719,-6.370558
898,letterkenny,Letterkenny parkrun,Letterkenny,,42,1,St Conals Hospital Campus,54.959034,-7.729891
899,oakwellhall,Oakwell Hall parkrun,Oakwell Hall,,97,1,Oakwell Hall Country Park,53.739437,-1.671596
902,froghollow,Frog Hollow parkrun,Frog Hollow,,3,1,David Collins Drive,-37.991559,145.273622
905,bowral,Bowral parkrun,Bowral,,3,1,Briars Country Lodge and Inn,-34.526266,150.395117
906,murraybridge,Murray Bridge parkrun,Murray Bridge,,3,1,Sturt Reserve,-35.121567,139.285558
907,colby,Colby parkrun,Colby,,97,1,Colby Woodland Garden,51.74064,-4.669924
910,izmailovo,parkrun Izmailovo,Izmailovo,parkrun Измайлово,79,1,Izmailovo park,55.787772,37.794319
911,greatnotley,Great Notley parkrun,Great Notley,,97,1,Great Notley Country Park,51.864147,0.51584
915,eastcoastpark,East Coast Park parkrun,East Coast Park,,82,1,East Coast Park,1.294954,103.893129
916,shellharbour,Shellharbour parkrun,Shellharbour,,3,1,Killalea Drive,-34.602608,150.862868
917,berrinba,Berrinba parkrun,Berrinba,,3,1,Berrinba Wetlands,-27.665606,153.077193
918,stirling-juniors,Stirling junior parkrun,Stirling juniors,,97,2,Kings Park,56.113824,-3.946307
919,inverloch,Inverloch parkrun,Inverloch,,3,1,Rotary Centenary Park,-38.639515,145.719625
921,cannibalscave,Cannibals Cave parkrun,Cannibals Cave,,85,1,Royal Natal National Park,-28.682918,28.976784
924,southmanchester-juniors,South Manchester junior parkrun,South Manchester juniors,,97,2,Platt Fields Park,53.448952,-2.22633
925,cambridge-juniors,Cambridge junior parkrun,Cambridge juniors,,97,2,Milton Country Park,52.236606,0.163389
926,whitleybay-juniors,Whitley Bay junior parkrun,Whitley Bay juniors,,97,2,Whitley Bay,55.0498,-1.447679
929,stlucia,St Lucia parkrun,St Lucia,,3,1,University of Queensland,-27.495122,153.017796
931,woking,Woking parkrun,Woking,,97,1,Woking Park,51.311708,-0.556204
932,cranleigh,Cranleigh parkrun,Cranleigh,,97,1,Bruce McKenzie Memorial Field,51.13819,-0.49151
933,geographebay,Geographe Bay parkrun,Geographe Bay,,3,1,Geographe Bay Rd,-33.642342,115.354374
934,mtclarence,Mt Clarence parkrun,Mt Clarence,,3,1,Flinders Parade,-35.025659,117.916528
937,bibralake,Bibra Lake parkrun,Bibra Lake,,3,1,Bibra Lake Reserve,-32.093955,115.820636
938,hagley,Hagley parkrun,Hagley,,65,1,North Hagley Park,-43.528594,172.62282
942,chermside,Chermside parkrun,Chermside,,3,1,"Kidspace Playground, 7th Brigade Park",-27.37896,153.033507
947,blandford,Blandford parkrun,Blandford,,97,1,Jubilee Way,50.863122,-2.16627
948,exeterriverside,Exeter Riverside parkrun,Exeter Riverside,,97,1,Exeter Quay & River Valley Park,50.713762,-3.525833
949,dawesville,Dawesville parkrun,Dawesville,,3,1,Dawesville Foreshore Reserve,-32.625918,115.640914
950,burgess-juniors,Burgess junior parkrun,Burgess juniors,Burgess junior parkrun,97,2,Burgess Park,51.483207,-0.082664
951,torridge-juniors,Torridge junior parkrun,Torridge juniors,,97,2,Victoria Park,51.023418,-4.203435
952,ipswich-juniors,Ipswich junior parkrun,Ipswich juniors,,97,2,Christchurch Park,52.065233,1.159304
953,pitshanger-juniors,Pitshanger junior parkrun,Pitshanger juniors,,97,2,Pitshanger Park,51.528578,-0.318553
954,whinlatterforest,Whinlatter Forest parkrun,Whinlatter Forest,,97,1,Whinlatter Forest Park,54.610017,-3.22446
955,chichester,Chichester parkrun,Chichester,,97,1,Oaklands Park,50.846182,-0.777535
956,nostell,Nostell parkrun,Nostell,,97,1,Nostell Priory,53.650212,-1.381241
957,pigglywiggly,Piggly Wiggly parkrun,Piggly Wiggly,,85,1,"Dargle Road, Howick",-29.458223,30.136667
959,elaginostrov,parkrun Elagin Ostrov,Elagin Ostrov,parkrun Елагин остров,79,1,Elagin Ostrov,59.977319,30.260285
960,ryazancentral,parkrun Ryazan Central,Ryazan Central,parkrun Рязань центральный парк,79,1,Ryazan Central,54.612814,39.734994
961,dartford,Dartford parkrun,Dartford,,97,1,Central Park,51.439141,0.220166
962,valley,"Valley parkrun, Newtownabbey",Valley,,97,1,Valley Leisure Centre,54.659949,-5.928342
964,chichester-juniors,Chichester junior parkrun,Chichester juniors,Chichester junior parkrun,97,2,Priory Park,50.839693,-0.776619
965,folkestone,Folkestone parkrun,Folkestone,,97,1,The Leas,51.075729,1.172753
966,bereisland,Bere Island parkrun,Bere Island,,42,1,Bere Island,51.632369,-9.81755
968,cronulla,Cronulla parkrun,Cronulla,,3,1,Don Lucas Reserve,-34.040937,151.161836
969,amanzimtoti,Amanzimtoti parkrun,Amanzimtoti,,85,1,Amanzimtoti,-30.049276,30.890567
971,middelburg,Middelburg parkrun,Middelburg,,85,1,Middelburg,-25.732228,29.510178
972,albertsfarm,Alberts Farm parkrun,Alberts Farm,,85,1,Alberts Farm,-26.161115,27.968273
973,swadlincote-juniors,Swadlincote junior parkrun,Swadlincote juniors,,97,2,Maurice Lea Memorial Park,52.764399,-1.557414
975,kesgrave,Kesgrave parkrun,Kesgrave,,97,1,Kesgrave,52.058138,1.257741
977,lismore,Lismore parkrun,Lismore,,3,1,Riverside Park,-28.812589,153.270029
978,cowra,Cowra parkrun,Cowra,,3,1,Cowra,-33.812714,148.703733
982,laudium,Laudium parkrun,Laudium,,85,1,Laudium Sports Stadium,-25.791852,28.095651
986,portaugusta,Port Augusta parkrun,Port Augusta,,3,1,Young Street (underneath the Joy Baluch ,-32.4874,137.764721
987,atherton,Atherton parkrun,Atherton,,3,1,Atherton Tablelands railtrail,-17.275414,145.471686
988,stockton,Stockton parkrun,Stockton,,3,1,Stockton,-32.919273,151.78442
992,warszawabrodno,parkrun Warszawa-Bródno,Warszawa-Bródno,parkrun Warszawa-Bródno,74,1,"Park Bródnowski, Warszawa",52.290317,21.035937
994,secunda,Secunda parkrun,Secunda,,85,1,Trichardspruit Dam,-26.518381,29.184209
995,grahamstown,Grahamstown parkrun,Grahamstown,,85,1,Makana Botanical Gardens,-33.314705,26.520674
996,kilkenny,Kilkenny parkrun,Kilkenny,,42,1,Castle Park,52.648977,-7.245307
998,strelka,parkrun Strelka,Strelka,parkrun Стрелка,79,1,парк Стрелка,57.620778,39.903974
999,mitino,parkrun Mitino,Mitino,parkrun Митино,79,1,Mitino,55.839559,37.367644
1000,timiryazevsky,parkrun Timiryazevsky,Timiryazevsky,parkrun Тимирязевский,79,1,Timiryazevsky,55.818189,37.555257
1001,hereford,Hereford parkrun,Hereford,,97,1,Hereford,52.068892,-2.724152
1002,tamarlakes,Tamar Lakes parkrun,Tamar Lakes,,97,1,Upper Tamar Lakes,50.879837,-4.433418
1004,huskisson,Huskisson parkrun,Huskisson,,3,1,Huskisson White Sands Park,-35.049429,150.677109
1006,parkville,Parkville parkrun,Parkville,,3,1,Princes Park,-37.784837,144.961755
1008,stutterheim,Stutterheim parkrun,Stutterheim,,85,1,Stutterheim Country Club,-32.567059,27.412219
1009,umhlanga,Umhlanga parkrun,Umhlanga,,85,1,Durban view park,-29.733319,31.084602
1010,vicarstown,Vicarstown parkrun,Vicarstown,,42,1,Vicarstown,53.056008,-7.083459
1014,moora,Moora parkrun,Moora,,3,1,Apex Park,-30.638892,116.004276
1017,fellfoot,"Fell Foot parkrun, Newby Bridge",Fell Foot,,97,1,Fell Foot Park,54.274736,-2.952259
1018,panshanger,Panshanger parkrun,Panshanger,,97,1,Panshanger Park,51.796066,-0.107589
1022,whitstable-juniors,Whitstable junior parkrun,Whitstable juniors,,97,2,Tankerton Slopes,51.364939,1.042448
1025,swinoujscie,parkrun Świnoujście,Świnoujście,parkrun Świnoujście,74,1,"Park Zdrojowy, Świnoujście",53.915451,14.25818
1026,ellesmereport,Ellesmere Port parkrun,Ellesmere Port,,97,1,Whitby Park,53.272524,-2.902542
1027,clarisford,Clarisford parkrun,Clarisford,,42,1,Clarisford Park,52.796642,-8.441796
1029,penrhyn,Penrhyn parkrun,Penrhyn,,97,1,Penrhyn Castle,53.226852,-4.094495
1030,harcourthill,Harcourt Hill parkrun,Harcourt Hill,,97,1,Harcourt Hill Campus,51.739369,-1.295191
1031,harlow,Harlow parkrun,Harlow,,97,1,Harlow Town Park,51.77766,0.103624
1032,brightwater,Brightwater parkrun,Brightwater,,3,1,Brightwater Sports Ground,-26.708909,153.113665
1033,brimbank,Brimbank parkrun,Brimbank,,3,1,Brimbank Park,-37.727547,144.834123
1034,markeaton-juniors,Markeaton junior parkrun,Markeaton juniors,,97,2,Markeaton Park,52.934138,-1.503604
1035,templenewsam-juniors,Temple Newsam junior parkrun,Temple Newsam juniors,,97,2,Temple Newsam Estate,53.784563,-1.45791
1036,victoria-juniors,"Victoria junior parkrun, Glasgow","Victoria juniors, Glasgow",,97,2,Victoria Park,55.87731,-4.332751
1040,nkomazi,Nkomazi parkrun,Nkomazi,,85,1,Tonga Village,-25.703683,31.788579
1046,gravesend-juniors,Gravesend junior parkrun,Gravesend juniors,,97,2,Riverside Leisure Area,51.443724,0.379039
1047,perryhall,Perry Hall parkrun,Perry Hall,,97,1,Perry Hall Park,52.52486,-1.911825
1048,tring,Tring parkrun,Tring,,97,1,Tring Park,51.786634,-0.659599
1049,poppintree,Poppintree parkrun,Poppintree,,42,1,Poppintree Park,53.398403,-6.286613
1050,cootehill,Cootehill parkrun,Cootehill,,42,1,Haltons Amenity Park,54.081471,-7.086978
1051,botanicalgarden,Botanical Garden parkrun,Botanical Garden,,85,1,Pretoria Botanical Garden,-25.738299,28.273752
1053,daventry,Daventry parkrun,Daventry,,97,1,Daventry Country Park,52.262374,-1.15732
1054,ballina,Ballina parkrun,Ballina,,42,1,Belleek,54.120048,-9.146141
1055,pruszkow,parkrun Pruszków,Pruszków,parkrun Pruszków,74,1,"Park Potulickich, Pruszków",52.167221,20.8095
1057,goudhurst-juniors,Goudhurst junior parkrun,Goudhurst juniors,,97,2,The Glebe Field,51.113694,0.463445
1058,hartstown,Hartstown parkrun,Hartstown,,42,1,Hartstown Park,53.395076,-6.415828
1059,conwy,Conwy parkrun,Conwy,,97,1,"RSPB Nature Reserve, Conwy",53.279388,-3.808966
1062,coburg,Coburg parkrun,Coburg,,3,1,Coburg Lake Reserve,-37.733811,144.968861
1063,traralgon,Traralgon parkrun,Traralgon,,3,1,Agnes Brereton Park,-38.189632,146.53648
1067,centurycity,Century City parkrun,Century City,,85,1,The Oval Sports Field,-33.888687,18.512412
1069,bellville,Bellville parkrun,Bellville,,85,1,Jack Muller - Danie Uys Park,-33.890643,18.629274
1070,langebaan,Langebaan parkrun,Langebaan,,85,1,Langebaan Country Estate,-33.075951,18.057497
1071,meltonmowbray,Melton Mowbray parkrun,Melton Mowbray,,97,1,Melton Country park,52.780002,-0.879068
1074,warnerlakes,Warner Lakes parkrun,Warner Lakes,,3,1,Dragonfly Park,-27.306906,152.955385
1075,narrabri,Narrabri parkrun,Narrabri,,3,1,Narrabri West Lake,-30.33885,149.755908
1076,thebeaches,The Beaches parkrun,The Beaches,,3,1,Bar Beach,-32.94159,151.767517
1077,warragul,Warragul parkrun,Warragul,,3,1,Brooker Park,-38.151043,145.932929
1080,taree,Taree parkrun,Taree,,3,1,Endeavour Place Reserve,-31.910271,152.468625
1081,kapiticoast,Kapiti Coast parkrun,Kapiti Coast,,65,1,Otaihanga Domain,-40.877245,175.019587
1082,dubbo,Dubbo parkrun,Dubbo,,3,1,Dubbo,-32.256257,148.591034
1084,kedzierzynkozle,parkrun Kędzierzyn-Koźle,Kędzierzyn-Koźle,parkrun Kędzierzyn-Koźle,74,1,"Park Miejski, Kędzierzyn-Koźle",50.353046,18.203561
1087,zelenograd,parkrun Zelenograd,Zelenograd,parkrun Зеленоград,79,1,Zelenograd,56.004966,37.218014
1088,tralee,Tralee parkrun,Tralee,,42,1,Tralee Town Park,52.266242,-9.705376
1093,pontypool-juniors,Pontypool junior parkrun,Pontypool juniors,,97,2,Pontypool Park,51.701218,-3.035392
1094,barnsley-juniors,Barnsley junior parkrun,Barnsley juniors,,97,2,Locke Park,53.54438,-1.48617
1098,menai,Menai parkrun,Menai,,3,1,Parc Menai,-34.016364,151.015082
1100,crissyfield,Crissy Field parkrun,Crissy Field,,98,1,San Francisco,37.806567,-122.448792
1103,sosnovka,parkrun Sosnovka,Sosnovka,parkrun Сосновка,79,1,Sosnovka,60.018449,30.340115
1104,bydgoszcz,parkrun Bydgoszcz,Bydgoszcz,parkrun Bydgoszcz,74,1,Park nad Starym Kanałem Bydgoskim,53.130854,17.954564
1105,chrzanow,parkrun Chrzanów,Chrzanów,parkrun Chrzanów,74,1,Nadleśnictwo Chrzanów/Kroczymiech,50.129465,19.358722
1106,gawler,Gawler parkrun,Gawler,,3,1,Clonlea Reserve,-34.590841,138.750027
1108,kununurra,Kununurra parkrun,Kununurra,,3,1,Swim Beach Park,-15.791571,128.700113
1109,maidenhead,Maidenhead parkrun,Maidenhead,,97,1,Braywick Park,51.51095,-0.712135
1110,hockleywoods,Hockley Woods parkrun,Hockley Woods,,97,1,Hockley Woods,51.596133,0.64912
1111,widnes,Widnes parkrun,Widnes,,97,1,Victoria Park,53.374508,-2.730069
1112,lebone,Lebone parkrun,Lebone,,85,1,Lebone II College,-25.600999,27.125941
1113,harrismith,Harrismith parkrun,Harrismith,,85,1,Platberg Nature Reserve,-28.279106,29.151059
1118,eastney-juniors,Eastney junior parkrun,Eastney juniors,,97,2,Bransbury Park,50.789698,-1.054334
1130,northallerton,Northallerton parkrun,Northallerton,,97,1,Hambleton Leisure Centre,54.348466,-1.435519
1133,sligo,Sligo parkrun,Sligo,,42,1,Doorly Park,54.265977,-8.452828
1137,kazancentral,parkrun Kazan Central,Kazan Central,parkrun Казань центральный парк,79,1,Kazan Central,55.795315,49.15261
1138,billrosesportscomplex,Bill Rose Sports Complex parkrun,Bill Rose Sports Complex,,3,1,Bill Rose Sports Complex,-32.054009,150.856114
1139,southoxhey,South Oxhey parkrun,South Oxhey,,97,1,South Oxhey Playing Fields,51.632255,-0.398653
1140,maryborough,Maryborough parkrun,Maryborough,,3,1,Anzac Park/Ululah Lagoon,-25.533689,152.686507
1142,goulburn,Goulburn parkrun,Goulburn,,3,1,Marsden Weir Park,-34.736445,149.706096
1143,limavady,Limavady parkrun,Limavady,,97,1,Blackburn Park,55.047128,-6.944777
1145,cardiff-juniors,Cardiff junior parkrun,Cardiff juniors,,97,2,Llandaff Fields,51.489617,-3.204035
1148,mansfieldbotanic,Mansfield Botanic parkrun,Mansfield Botanic,,3,1,Mansfield Botanic Park,-37.052419,146.093889
1151,goondiwindi,Goondiwindi parkrun,Goondiwindi,,3,1,Goondiwindi,-28.54951,150.307043
1152,cassiobury,Cassiobury parkrun,Cassiobury,,97,1,Cassiobury Park,51.657677,-0.406335
1153,jells,Jells parkrun,Jells,,3,1,Jells Park,-37.897912,145.193976
1156,kolobrzeg,parkrun Kołobrzeg,Kołobrzeg,parkrun Kołobrzeg,74,1,"Park im. Stefana Żeromskiego, Kołobrzeg",54.184504,15.575563
1158,chippingnorton,Chipping Norton parkrun,Chipping Norton,,3,1,Black Muscat Park,-33.909244,150.964108
1162,mawsonlakes,Mawson Lakes parkrun,Mawson Lakes,,3,1,Mawson Lakes,-34.81134,138.616733
1164,wimpoleestate-juniors,Wimpole Estate junior parkrun,Wimpole Estate juniors,,97,2,Wimple Estate,52.14024,-0.047103
1165,highburyfields-juniors,Highbury Fields junior parkrun,Highbury Fields juniors,,97,2,Highbury Fields,51.547113,-0.103038
1166,eaton-juniors,Eaton junior parkrun,Eaton juniors,,97,2,Eaton Park,52.619606,1.25856
1172,penrose,Penrose parkrun,Penrose,,97,1,Penrose,50.083578,-5.29595
1173,evesham,Evesham parkrun,Evesham,,97,1,Evesham,52.090191,-1.958122
1177,clarevalley,Clare Valley parkrun,Clare Valley,,3,1,Clare Showgrounds,-33.866335,138.625011
1179,wexfordracecourse,Wexford Racecourse parkrun,Wexford Racecourse,,42,1,Johnstown Castle,52.337798,-6.488119
1180,leesroad,Lees Road parkrun,Lees Road,,42,1,Lees Road Sport and Amenity Park,52.863938,-9.003332
1182,croxtethhall,Croxteth Hall parkrun,Croxteth Hall,,97,1,Croxteth Hall Country Park,53.44217,-2.891774
1183,kimberley,Kimberley parkrun,Kimberley,,85,1,Rooifontein Game Farm,-28.759379,24.826695
1185,lancefield,Lancefield parkrun,Lancefield,,3,1,Lancefield Park,-37.279321,144.724258
1191,boksburg,Boksburg parkrun,Boksburg,,85,1,Boksburg City Stadium,-26.235059,28.275415
1192,shanganagh,Shanganagh parkrun,Shanganagh,,42,1,Shanganagh Park,53.227908,-6.114882
1193,cabinteely,Cabinteely parkrun,Cabinteely,,42,1,Cabinteely Park,53.26137,-6.158811
1197,hastings,Hastings parkrun,Hastings,,97,1,Hastings,50.850291,0.539739
1198,rumia,parkrun Rumia,Rumia,parkrun Rumia,74,1,"Park przy ul. Starowiejskiej, Rumia",54.574728,18.395666
1199,wilmslow,Wilmslow parkrun,Wilmslow,,97,1,The Carrs Park,53.331288,-2.231588
1200,barryisland,Barry Island parkrun,Barry Island,,97,1,Barry Island Promenade,51.390202,-3.271371
1201,lullingstone,Lullingstone parkrun,Lullingstone,,97,1,Lullingstone Country Park,51.353118,0.187147
1202,forestlake,Forest Lake parkrun,Forest Lake,,3,1,Forest Lake Sports Fields,-27.61964,152.967745
1203,lesnesabbeywoods-juniors,Lesnes Abbey Woods junior parkrun,Lesnes Abbey Woods juniors,,97,2,Lesnes Abbey Woods Park,51.488936,0.12764
1211,stamfordpark,Stamford Park parkrun,Stamford Park,,97,1,Stamford Park,53.490901,-2.066163
1214,jeleniagora,parkrun Jelenia Góra,Jelenia-Góra,parkrun Jelenia Góra,74,1,"Park Norweski, Jelenia Góra",50.857558,15.678754
1215,opole,parkrun Opole,Opole,parkrun Opole,74,1,"Wyspa Bolko, Opole",50.650123,17.924448
1216,princealbert,Prince Albert parkrun,Prince Albert,,85,1,Odendaal Stadium,-33.214602,22.024823
1221,aberystwyth-juniors,Aberystwyth junior parkrun,Aberystwyth juniors,,97,2,Plas Crug Park,52.412885,-4.078402
1222,hamiltonisland,Hamilton Island parkrun,Hamilton Island,,3,1,Hamilton Island,-20.345551,148.95513
1224,lydiard-juniors,Lydiard junior parkrun,Lydiard juniors,,97,2,"Lydiard Park, Swindon",51.563048,-1.857423
1225,longrunmeadow-juniors,Longrun Meadow junior parkrun,Longrun Meadow juniors,,97,2,Longrun Meadow,51.017199,-3.115089
1229,newross,New Ross parkrun,New Ross,,42,1,J F Kennedy Arboretum,52.316359,-6.928439
1232,phillipisland,Phillip Island parkrun,Phillip Island,,3,1,Churchill Island,-38.498822,145.340674
1235,ballito,Ballito parkrun,Ballito,,85,1,Sugar Rush Park,-29.492418,31.18044
1236,theponds,The Ponds parkrun,The Ponds,,3,1,The Ponds Community Hub,-33.705952,150.909187
1237,altonabeach,Altona Beach parkrun,Altona Beach,,3,1,Apex Park,-37.875236,144.811911
1238,rhodes,Rhodes parkrun,Rhodes,,3,1,West Concord,-33.847462,151.081803
1239,uditore,Uditore parkrun,Uditore,,44,1,"Piazza Einstein, 90145 Palermo",38.129722,13.32777
1240,burnhamandhighbridge,Burnham and Highbridge parkrun,Burnham and Highbridge,,97,1,Apex Park,51.226679,-2.990243
1242,bromley-juniors,Bromley junior parkrun,Bromley juniors,,97,2,Norman Park,51.389329,0.026049
1243,hortonpark,Horton Park parkrun,Horton Park,,97,1,Horton Park,53.782455,-1.77538
1244,callaghan,Callaghan parkrun,Callaghan,,3,1,University Drive,-32.894393,151.702098
1245,barclay,Barclay parkrun,Barclay,,97,1,Barclay Park,51.759056,-0.019442
1246,castlemaine,Castlemaine parkrun,Castlemaine,,3,1,Castlemaine Botanical Gardens,-37.050794,144.217649
1247,aliwalnorth,Aliwal North parkrun,Aliwal North,,85,1,Aliwal North,-30.682118,26.727413
1248,durbanville,Durbanville parkrun,Durbanville,,85,1,Meerendal Wine Estate,-33.801551,18.621833
1249,pongola,Pongola parkrun,Pongola,,85,1,Pongola,-27.396878,31.657231
1250,dundalk,Dundalk parkrun,Dundalk,,42,1,Dundalk Institute of Technology,53.984567,-6.386803
1251,castleblayney,Castleblayney parkrun,Castleblayney,,42,1,Castleblayney,54.1219,-6.728947
1252,brundall,Brundall parkrun,Brundall,,97,1,Countryside Park,52.624133,1.417369
1253,salisbury,Salisbury parkrun,Salisbury,,97,1,Churchill Gardens,51.061528,-1.789858
1254,bramley,Bramley parkrun,Bramley,,97,1,Bramley Park,53.813432,-1.633461
1255,dewsbury-juniors,Dewsbury junior parkrun,Dewsbury juniors,,97,2,Crow Nest Park,53.688984,-1.646944
1256,dunfermline,Dunfermline parkrun,Dunfermline,,97,1,Pittencrieff Park,56.070684,-3.470694
1257,chelyabinsk,parkrun Chelyabinsk,Chelyabinsk,parkrun Челябинск,79,1,Chelyabinsk,55.155104,61.360207
1258,bitsa,parkrun Bitsa,Bitsa,parkrun Битца,79,1,Bitsа,55.636872,37.548337
1259,heslington,Heslington parkrun,Heslington,,97,1,York Sport Village,53.949319,-1.01799
1260,lubin,parkrun Lubin,Lubin,parkrun Lubin,74,1,"Park Wrocławski, Lubin",51.380777,16.200271
1261,skierniewice,parkrun Skierniewice,Skierniewice,parkrun Skierniewice,74,1,"Park Miejski, Skierniewice",51.965214,20.140672
1262,wolbrom,parkrun Wolbrom,Wolbrom,parkrun Wolbrom,74,1,"Parking, ul. Skalska, Wolbrom",50.37571,19.755898
1264,gedling,Gedling parkrun,Gedling,,97,1,Gedling Country Park,52.993919,-1.087124
1265,miltonkeynes-juniors,Milton Keynes junior parkrun,Milton Keynes juniors,,97,2,Emerson Valley Sports Pavilion,52.002181,-0.782082
1266,westonsupermare-juniors,Weston-super-Mare junior parkrun,Weston-super-Mare juniors,Weston-super-Mare junior parkrun,97,2,Weston-super-Mare,51.364772,-2.907495
1267,aldenham,Aldenham parkrun,Aldenham,,97,1,Aldenham Country Park,51.647953,-0.316507
1268,hovepromenade,Hove Promenade parkrun,Hove Promenade,,97,1,Hove Lawns,50.823391,-0.166594
1269,aylesbury-juniors,Aylesbury junior parkrun,Aylesbury juniors,,97,2,Meadowcroft Open Space,51.829601,-0.829935
1270,tewkesbury,Tewkesbury parkrun,Tewkesbury,,97,1,Tewkesbury,51.987666,-2.159373
1271,leeonthesolent,Lee-on-the-Solent parkrun,Lee-on-the-Solent,,97,1,Lee-on-the-Solent,50.801087,-1.20383
1272,athlone,Athlone parkrun,Athlone,,42,1,Athlone Institute of Technology,53.419271,-7.904069
1273,portrush-juniors,Portrush junior parkrun,Portrush juniors,,97,2,East Strand Beach,55.205011,-6.648452
1274,medway-juniors,Medway junior parkrun,Medway juniors,,97,2,Strand Leisure Park,51.394926,0.564496
1275,birkenhead,Birkenhead parkrun,Birkenhead,,97,1,Birkenhead Park,53.394807,-3.051658
1276,greatnotley-juniors,Great Notley junior parkrun,Great Notley juniors,,97,2,Great Notley Country Park,51.863774,0.51556
1277,wednesfield-juniors,Wednesfield junior parkrun,Wednesfield juniors,,97,2,Wednesfield Park,52.602455,-2.083638
1278,telford-juniors,Telford junior parkrun,Telford juniors,,97,2,Telford Town Park,52.671256,-2.445683
1279,moormead-juniors,Moormead junior parkrun,Moormead juniors,,97,2,Moormead and Bandy Recreation Ground,51.451595,-0.326684
1280,heavitree-juniors,Heavitree junior parkrun,Heavitree juniors,,97,2,Heavitree Pleasure Ground,50.723092,-3.501308
1281,cheltenham-juniors,Cheltenham junior parkrun,Cheltenham juniors,,97,2,The Park,51.886492,-2.088862
1282,guildford-juniors,Guildford junior parkrun,Guildford juniors,,97,2,Stoke Park,51.244977,-0.567461
1283,heronbanks,Heron Banks parkrun,Heron Banks,,85,1,Heron Banks Golf and River Estate,-26.756736,27.844026
1284,kraalkop,Kraalkop parkrun,Kraalkop,,85,1,Kraalkop Nature Reserve,-26.47181,27.479696
1285,wellington,Wellington parkrun,Wellington,,85,1,Wellington,-33.681943,19.019956
1286,goldenharvest,Golden Harvest parkrun,Golden Harvest,,85,1,"First Ave, Northgate",-26.069116,27.95355
1287,haywardsheath-juniors,Haywards Heath junior parkrun,Haywards Heath juniors,,97,2,Victoria Park,50.998429,-0.106104
1288,wilmslow-juniors,Wilmslow junior parkrun,Wilmslow juniors,,97,2,The Carrs,53.331301,-2.231746
1289,lowestoft,Lowestoft parkrun,Lowestoft,,97,1,Cardiff,52.468286,1.747338
1290,harwich,Harwich parkrun,Harwich,,97,1,Cliff Park,51.938035,1.284809
1291,bridgend-juniors,Bridgend junior parkrun,Bridgend juniors,,97,2,Newbridge Fields,51.502993,-3.583298
1292,krylatskoe,parkrun Krylatskoe,Krylatskoe,parkrun Крылатское,79,1,Krylatskoe,55.772757,37.408767
1293,tsaritsyno,parkrun Tsaritsyno,Tsaritsyno,parkrun Царицыно,79,1,Tsaritsyno,55.624061,37.677383
1295,tambov,parkrun Tambov,Tambov,parkrun Тамбов,79,1,Tambov,52.712605,41.483831
1296,surbiton-juniors,Surbiton junior parkrun,Surbiton juniors,,97,2,Alexandra Recreation Ground,51.384716,-0.288601
1297,torun,parkrun Toruń,Toruń,parkrun Toruń,74,1,"Las na Skarpie, Toruń",53.025641,18.704177
1298,volgogradpanorama,parkrun Volgograd Panorama,Volgograd Panorama,parkrun Волгоград панорама,79,1,Volgograd Panorama,48.715334,44.534467
1299,butovo,parkrun Butovo,Butovo,parkrun Бутово,79,1,Butovo,55.538603,37.518704
1300,dartfordheath,Dartford Heath parkrun,Dartford Heath,,97,1,Heath Lane,51.435932,0.189929
1301,stormont,Stormont parkrun,Stormont,,97,1,Stormont Estate,54.598318,-5.837749
1303,kingsweston-juniors,Kings Weston junior parkrun,Kings Weston juniors,,97,2,Kings Weston Estate,51.493696,-2.660036
1304,gostyn,parkrun Gostyń,Gostyń,parkrun Gostyń,74,1,"Nadleśnictwo Piaski, Gostyń",51.884368,16.992853
1305,szczecin,parkrun Szczecin,Szczecin,parkrun Szczecin,74,1,"Park Arkoński, Szczecin",53.462802,14.505647
1306,witton,Witton parkrun,Witton,,97,1,Witton Country Park,53.74055,-2.517211
1307,ellon,Ellon parkrun,Ellon,,97,1,Ellon Academy Community Campus,57.359262,-2.056968
1308,wyreforest,Wyre Forest parkrun,Wyre Forest,,97,1,Wyre Forest,52.365002,-2.369798
1309,swanseabay,Swansea Bay parkrun,Swansea Bay,,97,1,Swansea Bay,51.610463,-3.969848
1310,greatcornard-juniors,Great Cornard junior parkrun,Great Cornard juniors,,97,2,Great Cornard Sports Centre,52.023598,0.749416
1311,glossop,Glossop parkrun,Glossop,,97,1,Manor Park,53.447019,-1.939503
1312,jersey,Jersey parkrun,Jersey,,97,1,Les Quennevais sports centre,49.195026,-2.204124
1313,manorpark-juniors,Manor Park junior parkrun,Manor Park juniors,,97,2,Manor Park,51.288548,0.405811
1314,longeaton-juniors,Long Eaton junior parkrun,Long Eaton juniors,,97,2,West Park Leisure Centre,52.895161,-1.288336
1315,grangemoor,Grangemoor parkrun,Grangemoor,,97,1,Cardiff,51.454464,-3.192412
1316,fathercollins,Father Collins parkrun,Father Collins,,42,1,Father Collins Park,53.405158,-6.16021
1317,ashgrove,Ashgrove parkrun,Ashgrove,,3,1,Ashgrove Sportsground,-27.442334,152.972975
1318,bega,Bega parkrun,Bega,,3,1,Bega Racecourse,-36.668409,149.852269
1319,constantiagreenbelt,Constantia Greenbelt parkrun,Constantia Greenbelt,,85,1,Constantia Greenbelt,-34.008575,18.440688
1320,greygoose,Grey Goose parkrun,Grey Goose,,85,1,Grey Goose,-27.733307,29.892468
1321,donabate,Donabate parkrun,Donabate,,42,1,Newbridge House,53.486227,-6.167897
1322,sokolniki,parkrun Sokolniki,Sokolniki,parkrun Сокольники,79,1,Sokolniki,55.795796,37.676988
1323,whaleybridge-juniors,Whaley Bridge junior parkrun,Whaley Bridge juniors,,97,2,Whaley Bridge Memorial Park,53.327225,-1.987771
1324,buckingham-juniors,Buckingham junior parkrun,Buckingham juniors,,97,2,Bourton Park,51.997232,-0.975386
1325,lochiel,Lochiel parkrun,Lochiel,,3,1,Geoff Health Golf,-34.880815,138.649251
1326,thurrock,"Thurrock parkrun, Orsett Heath",Thurrock,,97,1,Pyramid Centre,51.491427,0.363436
1327,waterlooville-juniors,Waterlooville junior parkrun,Waterlooville juniors,,97,2,Jubilee Park,50.888467,-1.032861
1329,sherwoodpines,Sherwood Pines parkrun,Sherwood Pines,,97,1,Sherwood Pines Forest Park,53.165828,-1.084839
1330,malling,Malling parkrun,Malling,,97,1,Leybourne Lakes Country Park,51.31537,0.437343
1331,colinglen,Colin Glen parkrun,Colin Glen,,97,1,Colin Glen Forest Park,54.570723,-6.020504
1332,rutlandwater,Rutland Water parkrun,Rutland Water,,97,1,Rutland Water Reservoir,52.643712,-0.624447
1333,moira-juniors,Moira junior parkrun,Moira juniors,,97,2,Moira Demesne,54.483275,-6.228082
1334,harrogate-juniors,Harrogate junior parkrun,Harrogate juniors,,97,2,The Valley Gardens,53.991699,-1.550192
1335,hermanus,Hermanus parkrun,Hermanus,,85,1,Hermanus,-34.397417,19.215074
1336,ashford-juniors,Ashford junior parkrun,Ashford juniors,,97,2,Victoria park,51.144975,0.86233
1338,castletown,Castletown parkrun,Castletown,,42,1,Castletown House,53.348946,-6.528707
1339,beltonhouse,Belton House parkrun,Belton House,,97,1,Belton House,52.942743,-0.620021
1340,championlakes,Champion Lakes parkrun,Champion Lakes,,3,1,Champion Lakes,-32.106314,115.999535
1341,petrie,Petrie parkrun,Petrie,,3,1,Sweeney Reserve,-27.273406,152.974425
1342,paradisepoint,Paradise Point parkrun,Paradise Point,,3,1,Paradise Point,-27.885082,153.396218
1343,grafton,Grafton parkrun,Grafton,,3,1,Barnier Park,-29.643847,152.920487
1344,porterstown,Porterstown parkrun,Porterstown,,42,1,Porterstown Park,53.370116,-6.402238
1345,holkham,Holkham parkrun,Holkham,,97,1,Holkham Hall,52.950159,0.801022
1346,sedgefield-juniors,Sedgefield junior parkrun,Sedgefield juniors,,97,2,Hardwick Park,54.653037,-1.466979
1347,haighwoodland,Haigh Woodland parkrun,Haigh Woodland,,97,1,Haigh Country Park,53.572714,-2.609519
1348,rushmere,Rushmere parkrun,Rushmere,,97,1,Rushmere Country Park,51.947057,-0.674095
1349,gnoll,Gnoll parkrun,Gnoll,,97,1,Gnoll Estate Country Park,51.661114,-3.788616
1350,windmillhill-juniors,Windmill Hill junior parkrun,Windmill Hill juniors,,97,2,Victoria Park,51.438601,-2.587142
1351,leicestervictoria,Leicester Victoria parkrun,Leicester Victoria,,97,1,Victoria Park,52.620954,-1.121659
1352,nonsuch-juniors,Nonsuch junior parkrun,Nonsuch juniors,,97,2,Nonsuch Park,51.357366,-0.230945
1353,stretford,Stretford parkrun,Stretford,,97,1,Longford Park,53.446121,-2.290281
1354,crosby,Crosby parkrun,Crosby,,97,1,Crosby Leisure Centre,53.48269,-3.046711
1355,westernsprings,Western Springs parkrun,Western Springs,,65,1,Western Springs Park,-36.865137,174.720411
1356,taupo,Taupo parkrun,Taupo,,65,1,Two Mile Bay Reserve,-38.715183,176.081348
1357,surfersparadise,Surfers Paradise parkrun,Surfers Paradise,,3,1,HOTA - Home of the Arts,-28.000737,153.417365
1358,highfields,Highfields parkrun,Highfields,,3,1,Kratzke Oval,-27.453643,151.938702
1359,lythamhall,Lytham Hall parkrun,Lytham Hall,,97,1,Lytham Hall,53.744855,-2.977613
1360,nambour,Nambour parkrun,Nambour,,3,1,Parklands Regional Park,-26.594251,152.973543
1361,augustow,parkrun Augustów,Augustów,parkrun Augustów,74,1,"Bulwar nad Jeziorem Necko, Augustów",53.827144,22.999649
1362,larne-juniors,Larne junior parkrun,Larne juniors,,97,2,Town Park,54.857605,-5.807147
1363,rush-juniors,Rush junior parkrun,Rush juniors,,42,2,Kenure Woods,53.523269,-6.099962
1365,limerick,Limerick parkrun,Limerick,,42,1,University of Limerick,52.675635,-8.582395
1366,warrington-juniors,Warrington junior parkrun,Warrington juniors,,97,2,Orford Jubilee Neighbourhood Hub,53.405344,-2.587904
1367,wyndhamvale,Wyndham Vale parkrun,Wyndham Vale,,3,1,Presidents Park,-37.881655,144.634532
1368,colchester-juniors,Colchester junior parkrun,Colchester juniors,Colchester junior parkrun,97,2,Old Heath Recreation Ground,51.87996,0.919969
1369,lydney,Lydney parkrun,Lydney,,97,1,Lydney Boating Lake,51.721613,-2.52648
1370,maldonprom-juniors,Maldon Prom junior parkrun,Maldon Prom juniors,,97,2,Promenade Park,51.726789,0.689713
1371,vernadskogo,parkrun Vernadskogo,Vernadskogo,parkrun Вернадского,79,1,Vernadskogo,55.67948,37.505518
1372,kuzminki,parkrun Kuzminki,Kuzminki,parkrun Кузьминки,79,1,Kuzminki,55.69589,37.76998
1373,glengarriff,Glengarriff parkrun,Glengarriff,,42,1,Glengarriff Nature Reserve,51.755548,-9.566904
1375,saltaire-juniors,Saltaire junior parkrun,Saltaire juniors,,97,2,Roberts Park,53.841292,-1.792205
1376,march,March parkrun,March,,97,1,Williamson Park,52.550069,0.086208
1377,moskovskyparkpobedy,parkrun Moskovsky Park Pobedy,Moskovsky Park Pobedy,parkrun Московский парк Победы,79,1,г. Санкт-Петербург,59.868919,30.322104
1378,bevendeandown,Bevendean Down parkrun,Bevendean Down,,97,1,Bevendean Down,50.844709,-0.107027
1380,kingwilliamstown,King Williams Town parkrun,King Williams Town,,85,1,KWT Golf Club,-32.89146,27.4088
1381,tramore,"Tramore parkrun, Waterford",Tramore,,42,1,The promenade,52.159283,-7.141892
1382,whangarei,Whangarei parkrun,Whangarei,,65,1,Whangarei,-35.734968,174.334078
1383,fletcherscove,Fletcher’s Cove parkrun,Fletcher’s Cove,,98,1,Washington,38.919711,-77.10189
1384,falcarragh,Falcarragh parkrun,Falcarragh,,42,1,Ballyconnel Estate,55.140535,-8.099661
1385,lancaster,Lancaster parkrun,Lancaster,,97,1,Williamson Park,54.04568,-2.781183
