Event	Latitude	Longitude	Country	Status	DateCancelled	ReasonCancelled	Website	State
Aachener Weiher parkrun	50.934298	6.927553	Germany	5k Cancellation	2021-06-19	COVID-19 (Coronavirus)	https://www.parkrun.com.de/aachenerweiher	North Rhine-Westphalia
Aberbeeg parkrun	51.711165	-3.144286	United Kingdom	5k Cancellation	2021-06-19	COVID-19 (Coronavirus)	https://www.parkrun.org.uk/aberbeeg	Wales
Aberdare parkrun	51.718796	-3.460089	United Kingdom	5k Cancellation	2021-06-19	COVID-19 (Coronavirus)	https://www.parkrun.org.uk/aberdare	Wales
Aberdeen parkrun	57.173898	-2.086256	United Kingdom	5k Cancellation	2021-06-19	COVID-19 (Coronavirus)	https://www.parkrun.org.uk/aberdeen	Scotland
Aberystwyth junior parkrun	52.412885	-4.078402	United Kingdom	junior Cancellation	2021-06-20	COVID-19 (Coronavirus)	https://www.parkrun.org.uk/aberystwyth-juniors	Wales
Aberystwyth parkrun	52.414546	-4.080401	United Kingdom	5k Cancellation	2021-06-19	COVID-19 (Coronavirus)	https://www.parkrun.org.uk/aberystwyth	Wales
Abingdon parkrun	51.667957	-1.277429	United Kingdom	PtR	2021-06-19	COVID-19 (Coronavirus)	https://www.parkrun.org.uk/abingdon	England
Achill Greenway parkrun	53.935862	-9.915749	Ireland	5k Cancellation	2021-06-19	COVID-19 (Coronavirus)	https://www.parkrun.ie/achillgreenway	Connaught
Acton junior parkrun	51.507905	-0.258062	United Kingdom	junior parkrunning			https://www.parkrun.org.uk/acton-juniors	England
Adrenalin Addo parkrun	-33.473983	25.601965	South Africa	parkrunning			https://www.parkrun.co.za/adrenalinaddo	Eastern Cape
Aggeneys parkrun	-29.200132	18.839253	South Africa	5k Cancellation	2021-06-19	COVID-19 (Coronavirus)	https://www.parkrun.co.za/aggeneys	Northern Cape
Agnew parkrun	54.908188	-5.0349	United Kingdom	5k Cancellation	2021-06-19	COVID-19 (Coronavirus)	https://www.parkrun.org.uk/agnew	Scotland
Airlie Beach parkrun	-20.267153	148.711122	Australia	parkrunning			https://www.parkrun.com.au/airliebeach	Queensland
Albert College junior parkrun	53.38333	-6.261935	Ireland	junior Cancellation	2021-06-20	COVID-19 (Coronavirus)	https://www.parkrun.ie/albertcollege-juniors	Leinster
Albert parkrun, Melbourne	-37.843521	144.96312	Australia	5k Cancellation	2021-06-19	Covid restrictions	https://www.parkrun.com.au/albertmelbourne	Victoria
Albert parkrun, Middlesbrough	54.564972	-1.231788	United Kingdom	PtR	2021-06-19	COVID-19 (Coronavirus)	https://www.parkrun.org.uk/albert	England
Alberts Farm parkrun	-26.161115	27.968273	South Africa	5k Cancellation	2021-06-19	COVID-19 (Coronavirus)	https://www.parkrun.co.za/albertsfarm	Gauteng
Albury Wodonga parkrun	-36.0873	146.88886	Australia	parkrunning			https://www.parkrun.com.au/alburywodonga	New South Wales
Aldenham parkrun	51.647953	-0.316507	United Kingdom	PtR	2021-06-19	COVID-19 (Coronavirus)	https://www.parkrun.org.uk/aldenham	England
Alderford Lake parkrun	52.953181	-2.675436	United Kingdom	5k Cancellation	2021-06-19	COVID-19 (Coronavirus)	https://www.parkrun.org.uk/alderfordlake	England
Alderman Kneeshaw junior parkrun	53.769454	-0.262291	United Kingdom	junior Cancellation	2021-06-20	COVID-19 (Coronavirus)	https://www.parkrun.org.uk/aldermankneeshaw-juniors	England
Aldinga Beach parkrun	-35.287768	138.444983	Australia	parkrunning			https://www.parkrun.com.au/aldingabeach	South Australia
Alexandra junior parkrun, Moss Side	53.450725	-2.248631	United Kingdom	junior parkrunning			https://www.parkrun.org.uk/alexandramossside-juniors	England
Alexandra junior parkrun, Oldham	53.533022	-2.104298	United Kingdom	junior Cancellation	2021-06-20	COVID-19 (Coronavirus)	https://www.parkrun.org.uk/alexandra-juniors	England
Alexandra parkrun, Moss Side	53.450142	-2.248827	United Kingdom	PtR	2021-06-19	COVID-19 (Coronavirus)	https://www.parkrun.org.uk/alexandra	England
Alice Campus parkrun, University of Fort Hare	-32.788121	26.848026	South Africa	5k Cancellation	2021-06-19	COVID-19 (Coronavirus)	https://www.parkrun.co.za/alicecampus	Eastern Cape
Alice Holt parkrun	51.168607	-0.83814	United Kingdom	PtR	2021-06-19	COVID-19 (Coronavirus)	https://www.parkrun.org.uk/aliceholt	England
Aliwal North parkrun	-30.682118	26.727413	South Africa	5k Cancellation	2021-06-19	COVID-19 (Coronavirus)	https://www.parkrun.co.za/aliwalnorth	Eastern Cape
Ally Pally parkrun	51.595936	-0.12233	United Kingdom	PtR	2021-06-19	COVID-19 (Coronavirus)	https://www.parkrun.org.uk/allypally	England
Alness parkrun	57.694306	-4.256669	United Kingdom	5k Cancellation	2021-06-19	COVID-19 (Coronavirus)	https://www.parkrun.org.uk/alness	Scotland
Alstervorland parkrun	53.573708	10.002464	Germany	5k Cancellation	2021-06-19	COVID-19 (Coronavirus)	https://www.parkrun.com.de/alstervorland	Hamburg
Altona Beach parkrun	-37.875236	144.811911	Australia	5k Cancellation	2021-06-19	COVID restrictions	https://www.parkrun.com.au/altonabeach	Victoria
Alvaston parkrun	52.906173	-1.440173	United Kingdom	PtR	2021-06-19	COVID-19 (Coronavirus)	https://www.parkrun.org.uk/alvaston	England
Alyn Waters junior parkrun	53.083926	-3.018039	United Kingdom	junior Cancellation	2021-06-20	COVID-19 (Coronavirus)	https://www.parkrun.org.uk/alynwaters-juniors	Wales
Amager Fælled parkrun	55.653057	12.575108	Denmark	parkrunning			https://www.parkrun.dk/amager	Capital Region
Amager Strandpark parkrun	55.662538	12.635341	Denmark	parkrunning			https://www.parkrun.dk/amagerstrandpark	Capital Region
Amanzimtoti parkrun	-30.049276	30.890567	South Africa	5k Cancellation	2021-06-19	COVID-19 (Coronavirus)	https://www.parkrun.co.za/amanzimtoti	KwaZulu-Natal
Amsterdamse Bos parkrun	52.325634	4.855931	Netherlands	5k Cancellation	2021-06-19	COVID-19 (Coronavirus)	https://www.parkrun.co.nl/amsterdamsebos	North Holland
Anacostia parkrun	38.868085	-76.995023	USA	5k Cancellation	2021-06-19	COVID-19 (Coronavirus)	https://www.parkrun.us/anacostia	Washington, D.C.
Anderson parkrun	-39.522869	176.864169	New Zealand	parkrunning			https://www.parkrun.co.nz/anderson	Hawke's Bay
Andover junior parkrun	51.220901	-1.504812	United Kingdom	junior parkrunning			https://www.parkrun.org.uk/andover-juniors	England
Andover parkrun	51.221092	-1.512766	United Kingdom	PtR	2021-06-19	COVID-19 (Coronavirus)	https://www.parkrun.org.uk/andover	England
Angrignon parkrun	45.445094	-73.604075	Canada	5k Cancellation	2021-06-19	COVID-19 (Coronavirus)	https://www.parkrun.ca/angrignon	Quebec
Antrim parkrun	54.717078	-6.238818	United Kingdom	5k Cancellation	2021-06-19	COVID-19 (Coronavirus)	https://www.parkrun.org.uk/antrim	Northern Ireland
Aplins Weir parkrun	-19.302328	146.782361	Australia	parkrunning			https://www.parkrun.com.au/aplinsweir	Queensland
Applecross parkrun	-32.006932	115.834885	Australia	parkrunning			https://www.parkrun.com.au/applecross	Western Australia
Ararat parkrun	-37.279712	142.928756	Australia	5k Cancellation	2021-06-19	COVID restrictions no notice re if allowed to open	https://www.parkrun.com.au/ararat	Victoria
Ardgillan parkrun	53.586088	-6.161152	Ireland	5k Cancellation	2021-06-19	COVID-19 (Coronavirus)	https://www.parkrun.ie/ardgillan	Leinster
Arklow Duck Pond junior parkrun	52.801015	-6.142088	Ireland	junior Cancellation	2021-06-20	COVID-19 (Coronavirus)	https://www.parkrun.ie/arklowduckpond-juniors	Leinster
Armagh parkrun	54.339812	-6.652951	United Kingdom	5k Cancellation	2021-06-19	COVID-19 (Coronavirus)	https://www.parkrun.org.uk/armagh	Northern Ireland
Armidale parkrun	-30.491998	151.639419	Australia	parkrunning			https://www.parkrun.com.au/armidale	New South Wales
Armley parkrun	53.800347	-1.590893	United Kingdom	PtR	2021-06-19	COVID-19 (Coronavirus)	https://www.parkrun.org.uk/armley	England
Arrow Valley parkrun	52.29362	-1.906573	United Kingdom	PtR	2021-06-19	COVID-19 (Coronavirus)	https://www.parkrun.org.uk/arrowvalley	England
Ashburton parkrun	-29.641673	30.468107	South Africa	5k Cancellation	2021-06-19	COVID-19 (Coronavirus)	https://www.parkrun.co.za/ashburton	KwaZulu-Natal
Ashford junior parkrun	51.144975	0.86233	United Kingdom	junior parkrunning			https://www.parkrun.org.uk/ashford-juniors	England
Ashford parkrun	51.14347	0.864218	United Kingdom	PtR	2021-06-19	COVID-19 (Coronavirus)	https://www.parkrun.org.uk/ashford	England
Ashgrove parkrun	-27.442334	152.972975	Australia	parkrunning			https://www.parkrun.com.au/ashgrove	Queensland
Ashlyns junior parkrun	51.752028	-0.56325	United Kingdom	junior parkrunning			https://www.parkrun.org.uk/ashlyns-juniors	England
Ashton Court parkrun	51.443592	-2.639948	United Kingdom	PtR	2021-06-19	COVID-19 (Coronavirus)	https://www.parkrun.org.uk/ashtoncourt	England
Aspen parkrun	39.187266	-106.852397	USA	parkrunning			https://www.parkrun.us/aspen	Colorado
Atherton parkrun	-17.275414	145.471686	Australia	parkrunning			https://www.parkrun.com.au/atherton	Queensland
Athlone parkrun	53.419271	-7.904069	Ireland	5k Cancellation	2021-06-19	COVID-19 (Coronavirus)	https://www.parkrun.ie/athlone	Leinster
Atholl parkrun	-26.128736	28.065948	South Africa	5k Cancellation	2021-06-19	COVID-19 (Coronavirus)	https://www.parkrun.co.za/atholl	Gauteng
Atlasville parkrun	-26.160156	28.285877	South Africa	5k Cancellation	2021-06-19	COVID-19 (Coronavirus)	https://www.parkrun.co.za/atlasville	Gauteng
Aurora parkrun	-37.622365	145.00465	Australia	5k Cancellation	2021-06-19	Victoria restrictions due to COVID-19	https://www.parkrun.com.au/aurora	Victoria
Aveley parkrun	-31.789954	115.988052	Australia	parkrunning			https://www.parkrun.com.au/aveley	Western Australia
Avenham Park junior parkrun	53.753281	-2.699084	United Kingdom	junior parkrunning			https://www.parkrun.org.uk/avenhampark-juniors	England
Avery Beach parkrun, Huntsville	45.321961	-79.232377	Canada	5k Cancellation	2021-06-19	COVID-19 (Coronavirus)	https://www.parkrun.ca/averybeach	Ontario
Aviemore parkrun	57.205275	-3.818635	United Kingdom	5k Cancellation	2021-06-19	COVID-19 (Coronavirus)	https://www.parkrun.org.uk/aviemore	Scotland
Avondale Forest parkrun	52.908152	-6.225626	Ireland	5k Cancellation	2021-06-19	COVID-19 (Coronavirus)	https://www.parkrun.ie/avondaleforest	Leinster
Avondale University College parkrun	-33.088354	151.463247	Australia	parkrunning			https://www.parkrun.com.au/avondaleuniversitycollege	New South Wales
Aylesbury junior parkrun	51.829601	-0.829935	United Kingdom	junior Cancellation	2021-06-20	COVID-19 (Coronavirus)	https://www.parkrun.org.uk/aylesbury-juniors	England
Aylesbury parkrun	51.83162	-0.838394	United Kingdom	PtR	2021-06-19	COVID-19 (Coronavirus)	https://www.parkrun.org.uk/aylesbury	England
Aylestone junior parkrun	52.609737	-1.134248	United Kingdom	junior Cancellation	2021-06-20	COVID-19 (Coronavirus)	https://www.parkrun.org.uk/aylestone-juniors	England
Ayr parkrun	55.436189	-4.624316	United Kingdom	5k Cancellation	2021-06-19	COVID-19 (Coronavirus)	https://www.parkrun.org.uk/ayr	Scotland
Babbs Mill parkrun	52.489833	-1.746034	United Kingdom	PtR	2021-06-19	COVID-19 (Coronavirus)	https://www.parkrun.org.uk/babbsmill	England
Badhusparken parkrun	63.179394	14.630701	Sweden	5k Cancellation	2021-06-19	COVID-19 (Coronavirus)	https://www.parkrun.se/badhusparken	Jämtland
Bailey junior parkrun	51.826629	-3.016796	United Kingdom	junior Cancellation	2021-06-20	COVID-19 (Coronavirus)	https://www.parkrun.org.uk/bailey-juniors	Wales
Bairnsdale parkrun	-37.823487	147.632774	Australia	5k Cancellation	2021-06-19	COVID-19 Restrictions	https://www.parkrun.com.au/bairnsdale	Victoria
Bakewell parkrun	53.230788	-1.675286	United Kingdom	5k Cancellation	2021-06-19	COVID-19 (Coronavirus)	https://www.parkrun.org.uk/bakewell	England
Balbriggan junior parkrun	53.616099	-6.187225	Ireland	junior Cancellation	2021-06-20	COVID-19 (Coronavirus)	https://www.parkrun.ie/balbriggan-juniors	Leinster
Balclutha parkrun	-46.238883	169.731177	New Zealand	parkrunning			https://www.parkrun.co.nz/balclutha	Otago
Ballarat parkrun	-37.556649	143.820637	Australia	5k Cancellation	2021-06-19	Victoria 7 Day Circuit Breaker Lockdown 4th week	https://www.parkrun.com.au/ballarat	Victoria
Ballina Coast parkrun	-28.869637	153.576356	Australia	parkrunning			https://www.parkrun.com.au/ballinacoast	New South Wales
Ballina junior parkrun	54.120195	-9.144698	Ireland	junior Cancellation	2021-06-20	COVID-19 (Coronavirus)	https://www.parkrun.ie/ballina-juniors	Connaught
Ballina parkrun	54.120048	-9.146141	Ireland	5k Cancellation	2021-06-19	COVID-19 (Coronavirus)	https://www.parkrun.ie/ballina	Connaught
Ballincollig Regional junior parkrun	51.891195	-8.615084	Ireland	junior Cancellation	2021-06-20	COVID-19 (Coronavirus)	https://www.parkrun.ie/ballincolligregional-juniors	Munster
Ballincollig parkrun	51.891833	-8.605349	Ireland	5k Cancellation	2021-06-19	COVID-19 (Coronavirus)	https://www.parkrun.ie/ballincollig	Munster
Ballito parkrun	-29.492418	31.18044	South Africa	5k Cancellation	2021-06-19	COVID-19 (Coronavirus)	https://www.parkrun.co.za/ballito	KwaZulu-Natal
Ballyogan junior parkrun	53.257026	-6.190746	Ireland	junior Cancellation	2021-06-20	COVID-19 (Coronavirus)	https://www.parkrun.ie/ballyogan-juniors	Leinster
Balyang Sanctuary parkrun	-38.166457	144.331179	Australia	5k Cancellation	2021-06-19	Victoria Government Current Covid Restrictions	https://www.parkrun.com.au/balyangsanctuary	Victoria
Banbury parkrun	52.068807	-1.332318	United Kingdom	PtR	2021-06-19	COVID-19 (Coronavirus)	https://www.parkrun.org.uk/banbury	England
Bangor junior parkrun	54.650612	-5.709153	United Kingdom	junior parkrunning			https://www.parkrun.org.uk/bangor-juniors	Northern Ireland
Bangor parkrun, Northern Ireland	54.660024	-5.661693	United Kingdom	5k Cancellation	2021-06-19	COVID-19 (Coronavirus)	https://www.parkrun.org.uk/bangor	Northern Ireland
Bankton Mains Park junior parkrun	55.87326	-3.511448	United Kingdom	junior Cancellation	2021-06-20	COVID-19 (Coronavirus)	https://www.parkrun.org.uk/banktonmainspark-juniors	Scotland
Bannockburn Bush parkrun	-38.063066	144.142907	Australia	5k Cancellation	2021-06-19	COVID-19 restrictions	https://www.parkrun.com.au/bannockburnbush	Victoria
Banstead Woods parkrun	51.307648	-0.184225	United Kingdom	PtR	2021-06-19	COVID-19 (Coronavirus)	https://www.parkrun.org.uk/banstead	England
Barberton parkrun	-25.76011	31.049736	South Africa	parkrunning			https://www.parkrun.co.za/barberton	Mpumalanga
Barclay parkrun	51.759056	-0.019442	United Kingdom	PtR	2021-06-19	COVID-19 (Coronavirus)	https://www.parkrun.org.uk/barclay	England
Bargara parkrun	-24.806914	152.456905	Australia	parkrunning			https://www.parkrun.com.au/bargara	Queensland
Baringa parkrun	-26.806829	153.080945	Australia	parkrunning			https://www.parkrun.com.au/baringa	Queensland
Barking and Dagenham junior parkrun	51.544937	0.125871	United Kingdom	junior parkrunning			https://www.parkrun.org.uk/barkinganddagenham-juniors	England
Barking parkrun	51.545894	0.087312	United Kingdom	PtR	2021-06-19	COVID-19 (Coronavirus)	https://www.parkrun.org.uk/barking	England
Barnsley junior parkrun	53.54438	-1.48617	United Kingdom	junior Cancellation	2021-06-20	COVID-19 (Coronavirus)	https://www.parkrun.org.uk/barnsley-juniors	England
Barnsley parkrun	53.544369	-1.486115	United Kingdom	PtR	2021-06-19	COVID-19 (Coronavirus)	https://www.parkrun.org.uk/barnsley	England
Barnstaple junior parkrun	51.071801	-4.053904	United Kingdom	junior Cancellation	2021-06-20	Another event in the park	https://www.parkrun.org.uk/barnstaple-juniors	England
Barnstaple parkrun	51.072561	-4.053612	United Kingdom	PtR	2021-06-19	COVID-19 (Coronavirus)	https://www.parkrun.org.uk/barnstaple	England
Barrow junior parkrun	54.116526	-3.218758	United Kingdom	junior parkrunning			https://www.parkrun.org.uk/barrow-juniors	England
Barrow parkrun	54.117706	-3.218855	United Kingdom	PtR	2021-06-19	COVID-19 (Coronavirus)	https://www.parkrun.org.uk/barrow	England
Barry Curtis parkrun	-36.9597	174.914382	New Zealand	parkrunning			https://www.parkrun.co.nz/barrycurtis	Auckland
Barry Island parkrun	51.390202	-3.271371	United Kingdom	5k Cancellation	2021-06-19	COVID-19 (Coronavirus)	https://www.parkrun.org.uk/barryisland	Wales
Barry junior parkrun	51.393485	-3.291377	United Kingdom	junior Cancellation	2021-06-20	COVID-19 (Coronavirus)	https://www.parkrun.org.uk/barry-juniors	Wales
Barshaw junior parkrun	55.84851	-4.394725	United Kingdom	junior Cancellation	2021-06-20	COVID-19 (Coronavirus)	https://www.parkrun.org.uk/barshaw-juniors	Scotland
Basildon parkrun	51.577778	0.499615	United Kingdom	PtR	2021-06-19	COVID-19 (Coronavirus)	https://www.parkrun.org.uk/basildon	England
Basingstoke junior parkrun	51.252197	-1.128675	United Kingdom	junior parkrunning			https://www.parkrun.org.uk/basingstoke-juniors	England
Basingstoke parkrun	51.258831	-1.082035	United Kingdom	PtR	2021-06-19	COVID-19 (Coronavirus)	https://www.parkrun.org.uk/basingstoke	England
Batemans Bay parkrun	-35.712112	150.185995	Australia	parkrunning			https://www.parkrun.com.au/batemansbay	New South Wales
Bath Odd Down junior parkrun	51.363164	-2.376181	United Kingdom	junior parkrunning			https://www.parkrun.org.uk/bathodddown-juniors	England
Bath Skyline parkrun	51.364717	-2.338425	United Kingdom	PtR	2021-06-19	COVID-19 (Coronavirus)	https://www.parkrun.org.uk/bathskyline	England
Bathurst parkrun	-33.414176	149.586917	Australia	parkrunning			https://www.parkrun.com.au/bathurst	New South Wales
Battery Park junior parkrun	55.961198	-4.800003	United Kingdom	junior Cancellation	2021-06-20	COVID-19 (Coronavirus)	https://www.parkrun.org.uk/batterypark-juniors	Scotland
Beach Strip parkrun	43.259467	-79.76563	Canada	5k Cancellation	2021-06-19	COVID-19 (Coronavirus)	https://www.parkrun.ca/beachstrip	Ontario
Beacon parkrun	52.685891	-1.83863	United Kingdom	PtR	2021-06-19	COVID-19 (Coronavirus)	https://www.parkrun.org.uk/beacon	England
Bear Creek Greenbelt parkrun	32.927592	-97.230411	USA	parkrunning			https://www.parkrun.us/bearcreekgreenbelt	Texas
Beaumont Park junior parkrun	53.622934	-1.811237	United Kingdom	junior parkrunning			https://www.parkrun.org.uk/beaumontpark-juniors	England
Beckenham Place parkrun	51.41853	-0.01959	United Kingdom	5k Cancellation	2021-06-19	COVID-19 (Coronavirus)	https://www.parkrun.org.uk/beckenhamplace	England
Beckton parkrun	51.51176	0.046542	United Kingdom	PtR	2021-06-19	COVID-19 (Coronavirus)	https://www.parkrun.org.uk/beckton	England
Bedfont Lakes parkrun	51.440762	-0.451523	United Kingdom	PtR	2021-06-19	COVID-19 (Coronavirus)	https://www.parkrun.org.uk/bedfont	England
Bedford junior parkrun	52.124298	-0.449781	United Kingdom	junior Cancellation	2021-06-20	COVID-19 (Coronavirus)	https://www.parkrun.org.uk/bedford-juniors	England
Bedford parkrun	52.148125	-0.459366	United Kingdom	5k Cancellation	2021-06-19	COVID-19 (Coronavirus)	https://www.parkrun.org.uk/bedford	England
Bedgebury Pinetum parkrun	51.071871	0.450168	United Kingdom	PtR	2021-06-19	COVID-19 (Coronavirus)	https://www.parkrun.org.uk/bedgeburypinetum	England
Bedok Reservoir parkrun	1.341364	103.920167	Singapore	5k Cancellation	2021-06-19	COVID-19 (Coronavirus)	https://www.parkrun.sg/bedokreservoir	Singapore
Bedworth parkrun	52.476054	-1.47027	United Kingdom	PtR	2021-06-19	COVID-19 (Coronavirus)	https://www.parkrun.org.uk/bedworth	England
Beechpark junior parkrun	53.381645	-6.424837	Ireland	junior Cancellation	2021-06-20	COVID-19 (Coronavirus)	https://www.parkrun.ie/beechpark-juniors	Leinster
Beehive junior parkrun	51.788927	-0.189677	United Kingdom	junior parkrunning			https://www.parkrun.org.uk/beehive-juniors	England
Beeston parkrun	52.913592	-1.201737	United Kingdom	PtR	2021-06-19	COVID-19 (Coronavirus)	https://www.parkrun.org.uk/beeston	England
Bega parkrun	-36.668409	149.852269	Australia	parkrunning			https://www.parkrun.com.au/bega	New South Wales
Belfast Victoria junior parkrun	54.609998	-5.870456	United Kingdom	junior Cancellation	2021-06-20	COVID-19 (Coronavirus)	https://www.parkrun.org.uk/belfastvictoria-juniors	Northern Ireland
Belfast Victoria parkrun	54.608785	-5.881573	United Kingdom	5k Cancellation	2021-06-19	COVID-19 (Coronavirus)	https://www.parkrun.org.uk/belfastvictoria	Northern Ireland
Bellerive parkrun	-42.878181	147.37175	Australia	parkrunning			https://www.parkrun.com.au/bellerive	Tasmania
Bellevue Park junior parkrun	-27.994529	153.396886	Australia	junior Cancellation	2021-06-20	Not enough volunteers	https://www.parkrun.com.au/bellevuepark-juniors	Queensland
Bellevue parkrun	46.500362	-84.298049	Canada	5k Cancellation	2021-06-19	COVID-19 (Coronavirus)	https://www.parkrun.ca/bellevue	Ontario
Belloluogo parkrun	40.360409	18.161486	Italy	5k Cancellation	2021-06-19	COVID-19 (Coronavirus)	https://www.parkrun.it/belloluogo	Apulia
Bells Inn parkrun	-26.325796	28.034152	South Africa	5k Cancellation	2021-06-19	COVID-19 (Coronavirus)	https://www.parkrun.co.za/bellsinn	Gauteng
Bellville parkrun	-33.890643	18.629274	South Africa	5k Cancellation	2021-06-19	COVID-19 (Coronavirus)	https://www.parkrun.co.za/bellville	Western Cape
Belton House parkrun	52.942743	-0.620021	United Kingdom	PtR	2021-06-19	COVID-19 (Coronavirus)	https://www.parkrun.org.uk/beltonhouse	England
Benalla Botanical Gardens parkrun	-36.553856	145.977439	Australia	5k Cancellation	2021-06-19	Victorian Lockdown laws eff 18 June 2021	https://www.parkrun.com.au/benallabotanicalgardens	Victoria
Bendigo Botanic Gardens parkrun	-36.725618	144.305636	Australia	5k Cancellation	2021-06-19	COVID restrictions	https://www.parkrun.com.au/bendigobotanicgardens	Victoria
Bere Island parkrun	51.632369	-9.81755	Ireland	5k Cancellation	2021-06-19	COVID-19 (Coronavirus)	https://www.parkrun.ie/bereisland	Munster
Berkeley Green parkrun	51.690962	-2.497513	United Kingdom	PtR	2021-06-19	COVID-19 (Coronavirus)	https://www.parkrun.org.uk/berkeleygreen	England
Berrinba parkrun	-27.665606	153.077193	Australia	parkrunning			https://www.parkrun.com.au/berrinba	Queensland
Berwick Springs parkrun	-38.062069	145.322932	Australia	5k Cancellation	2021-06-19	Victoria 7 Day Circuit Breaker Lockdown	https://www.parkrun.com.au/berwicksprings	Victoria
Berwick Waters parkrun	-38.078218	145.342965	Australia	5k Cancellation	2021-06-19	Victorian COVID restrictions	https://www.parkrun.com.au/berwickwaters	Victoria
Bestwood Village parkrun	53.022132	-1.171188	United Kingdom	PtR	2021-06-19	COVID-19 (Coronavirus)	https://www.parkrun.org.uk/bestwoodvillage	England
Bethlehem parkrun	-28.251308	28.336215	South Africa	parkrunning			https://www.parkrun.co.za/bethlehem	Orange Free State
Bethlem Royal Hospital parkrun	51.385332	-0.029969	United Kingdom	5k Cancellation	2021-06-19	COVID-19 (Coronavirus)	https://www.parkrun.org.uk/bethlemroyalhospital	England
Betteshanger junior parkrun	51.236001	1.371111	United Kingdom	junior parkrunning			https://www.parkrun.org.uk/betteshanger-juniors	England
Betty's Bay parkrun	-34.351851	18.926615	South Africa	5k Cancellation	2021-06-19	COVID-19 (Coronavirus)	https://www.parkrun.co.za/bettysbay	Western Cape
Bevendean Down parkrun	50.844709	-0.107027	United Kingdom	PtR	2021-06-19	COVID-19 (Coronavirus)	https://www.parkrun.org.uk/bevendeandown	England
Beverley Westwood parkrun	53.840255	-0.440675	United Kingdom	PtR	2021-06-19	COVID-19 (Coronavirus)	https://www.parkrun.org.uk/beverleywestwood	England
Bexley parkrun	51.455132	0.113254	United Kingdom	PtR	2021-06-19	COVID-19 (Coronavirus)	https://www.parkrun.org.uk/bexley	England
Bezuidenhout parkrun	-26.180165	28.089316	South Africa	5k Cancellation	2021-06-19	COVID-19 (Coronavirus)	https://www.parkrun.co.za/bezuidenhout	Gauteng
Bibra Lake parkrun	-32.093955	115.820636	Australia	parkrunning			https://www.parkrun.com.au/bibralake	Western Australia
Bicester parkrun	51.891101	-1.146866	United Kingdom	PtR	2021-06-19	COVID-19 (Coronavirus)	https://www.parkrun.org.uk/bicester	England
Bideford parkrun	51.024075	-4.204316	United Kingdom	PtR	2021-06-19	COVID-19 (Coronavirus)	https://www.parkrun.org.uk/bideford	England
Big Bay parkrun	-33.792113	18.456388	South Africa	5k Cancellation	2021-06-19	COVID-19 (Coronavirus)	https://www.parkrun.co.za/bigbay	Western Cape
Bill Rose Sports Complex parkrun	-32.054009	150.856114	Australia	parkrunning			https://www.parkrun.com.au/billrosesportscomplex	New South Wales
Billericay parkrun	51.632966	0.417446	United Kingdom	PtR	2021-06-19	COVID-19 (Coronavirus)	https://www.parkrun.org.uk/billericay	England
Billingham junior parkrun	54.610247	-1.289735	United Kingdom	junior Cancellation	2021-06-20	COVID-19 (Coronavirus)	https://www.parkrun.org.uk/billingham-juniors	England
Birches Valley junior parkrun	52.750906	-1.968971	United Kingdom	junior Cancellation	2021-06-20	COVID-19 (Coronavirus)	https://www.parkrun.org.uk/birchesvalley-juniors	England
Birdsland Reserve parkrun	-37.923408	145.335724	Australia	5k Cancellation	2021-06-19	COVID-19 Restrictions	https://www.parkrun.com.au/birdslandreserve	Victoria
Birkenhead parkrun	53.394807	-3.051658	United Kingdom	PtR	2021-06-19	COVID-19 (Coronavirus)	https://www.parkrun.org.uk/birkenhead	England
Bishan parkrun	1.360729	103.850291	Singapore	5k Cancellation	2021-06-19	COVID-19 (Coronavirus)	https://www.parkrun.sg/bishan	Singapore
Black Park parkrun	51.540329	-0.5476	United Kingdom	PtR	2021-06-19	COVID-19 (Coronavirus)	https://www.parkrun.org.uk/blackpark	England
Blackbutt parkrun	-32.932526	151.699755	Australia	parkrunning			https://www.parkrun.com.au/blackbutt	New South Wales
Blackhill parkrun	54.858315	-1.842366	United Kingdom	PtR	2021-06-19	COVID-19 (Coronavirus)	https://www.parkrun.org.uk/blackhill	England
Blackpool parkrun	53.811727	-3.023114	United Kingdom	PtR	2021-06-19	COVID-19 (Coronavirus)	https://www.parkrun.org.uk/blackpool	England
Blandford parkrun	50.863122	-2.16627	United Kingdom	PtR	2021-06-19	COVID-19 (Coronavirus)	https://www.parkrun.org.uk/blandford	England
Blenheim parkrun	-41.511842	173.95879	New Zealand	parkrunning			https://www.parkrun.co.nz/blenheim	Marlborough
Blickling parkrun	52.813653	1.221671	United Kingdom	PtR	2021-06-19	COVID-19 (Coronavirus)	https://www.parkrun.org.uk/blickling	England
Bloemhof parkrun	-27.653549	25.595048	South Africa	5k Cancellation	2021-06-19	COVID-19 (Coronavirus)	https://www.parkrun.co.za/bloemhof	North-West
Bloxwich junior parkrun	52.625246	-2.006525	United Kingdom	junior parkrunning			https://www.parkrun.org.uk/bloxwich-juniors	England
Blue Gum Hills parkrun	-32.884131	151.620206	Australia	parkrunning			https://www.parkrun.com.au/bluegumhills	New South Wales
Blue Lagoon parkrun	-29.811223	31.03348	South Africa	5k Cancellation	2021-06-19	COVID-19 (Coronavirus)	https://www.parkrun.co.za/bluelagoon	KwaZulu-Natal
Blyth Links parkrun	55.106922	-1.499456	United Kingdom	PtR	2021-06-19	COVID-19 (Coronavirus)	https://www.parkrun.org.uk/blythlinks	England
Bodington junior parkrun	53.841537	-1.590275	United Kingdom	junior parkrunning			https://www.parkrun.org.uk/bodington-juniors	England
Bodmin junior parkrun	50.474313	-4.73101	United Kingdom	junior parkrunning			https://www.parkrun.org.uk/bodmin-juniors	England
Bognor Regis junior parkrun	50.792765	-0.693819	United Kingdom	junior parkrunning			https://www.parkrun.org.uk/bognorregis-juniors	England
Bognor Regis parkrun	50.786913	-0.668305	United Kingdom	PtR	2021-06-19	COVID-19 (Coronavirus)	https://www.parkrun.org.uk/bognorregis	England
Boksburg parkrun	-26.235059	28.275415	South Africa	5k Cancellation	2021-06-19	COVID-19 (Coronavirus)	https://www.parkrun.co.za/boksburg	Gauteng
Bolberry Down parkrun	50.23197	-3.842329	United Kingdom	PtR	2021-06-19	COVID-19 (Coronavirus)	https://www.parkrun.org.uk/bolberrydown	England
Bolton parkrun	53.574715	-2.395615	United Kingdom	PtR	2021-06-19	COVID-19 (Coronavirus)	https://www.parkrun.org.uk/bolton	England
Borrisokane Town parkrun	52.998198	-8.132919	Ireland	5k Cancellation	2021-06-19	COVID-19 (Coronavirus)	https://www.parkrun.ie/borrisokanetown	Munster
Bosmont Stadium parkrun	-26.194801	27.954446	South Africa	5k Cancellation	2021-06-19	COVID-19 (Coronavirus)	https://www.parkrun.co.za/bosmontstadium	Gauteng
Boston Road Rec junior parkrun	52.997065	-0.40055	United Kingdom	junior Cancellation	2021-06-20	The recreation ground is hosting the local fair	https://www.parkrun.org.uk/bostonroadrec-juniors	England
Boston parkrun	52.990156	-0.038556	United Kingdom	PtR	2021-06-19	COVID-19 (Coronavirus)	https://www.parkrun.org.uk/boston	England
Botanical Garden parkrun	-25.738299	28.273752	South Africa	5k Cancellation	2021-06-19	COVID-19 (Coronavirus)	https://www.parkrun.co.za/botanicalgarden	Gauteng
Bourke Racecourse parkrun	-30.09756	145.92572	Australia	parkrunning			https://www.parkrun.com.au/bourkeracecourse	New South Wales
Bournemouth parkrun	50.73362	-1.832732	United Kingdom	PtR	2021-06-19	COVID-19 (Coronavirus)	https://www.parkrun.org.uk/bournemouth	England
Bowen parkrun	-19.985467	148.257052	Australia	parkrunning			https://www.parkrun.com.au/bowen	Queensland
Bower Park parkrun	54.761523	-3.331244	United Kingdom	5k Cancellation	2021-06-19	COVID-19 (Coronavirus)	https://www.parkrun.org.uk/bowerpark	England
Bowling Park parkrun	53.778303	-1.739889	United Kingdom	PtR	2021-06-19	COVID-19 (Coronavirus)	https://www.parkrun.org.uk/bowlingpark	England
Bowral parkrun	-34.526266	150.395117	Australia	parkrunning			https://www.parkrun.com.au/bowral	New South Wales
Brabrand parkrun	56.165699	10.141282	Denmark	parkrunning			https://www.parkrun.dk/brabrand	Central Jutland
Bracknell junior parkrun	51.389493	-0.778067	United Kingdom	junior parkrunning			https://www.parkrun.org.uk/bracknell-juniors	England
Bracknell parkrun	51.390248	-0.776844	United Kingdom	PtR	2021-06-19	COVID-19 (Coronavirus)	https://www.parkrun.org.uk/bracknell	England
Bradford parkrun	53.814575	-1.775102	United Kingdom	PtR	2021-06-19	COVID-19 (Coronavirus)	https://www.parkrun.org.uk/bradford	England
Braidwood Showground parkrun	-35.422759	149.791222	Australia	5k Cancellation	2021-06-19	Ground very wet & unsafe to use.	https://www.parkrun.com.au/braidwoodshowground	New South Wales
Brakpan parkrun	-26.228901	28.370649	South Africa	5k Cancellation	2021-06-19	COVID-19 (Coronavirus)	https://www.parkrun.co.za/brakpan	Gauteng
Bramhall parkrun	53.374268	-2.160702	United Kingdom	PtR	2021-06-19	COVID-19 (Coronavirus)	https://www.parkrun.org.uk/bramhall	England
Bramley junior parkrun	53.81364	-1.634046	United Kingdom	junior parkrunning			https://www.parkrun.org.uk/bramley-juniors	England
Bramley parkrun	53.813432	-1.633461	United Kingdom	PtR	2021-06-19	COVID-19 (Coronavirus)	https://www.parkrun.org.uk/bramley	England
Brandkop parkrun	-29.145325	26.168249	South Africa	5k Cancellation	2021-06-19	COVID-19 (Coronavirus)	https://www.parkrun.co.za/brandkop	Orange Free State
Brandon Country Park parkrun	52.436339	0.625877	United Kingdom	5k Cancellation	2021-06-19	COVID-19 (Coronavirus)	https://www.parkrun.org.uk/brandoncountrypark	England
Braunstone parkrun	52.626129	-1.178681	United Kingdom	PtR	2021-06-19	COVID-19 (Coronavirus)	https://www.parkrun.org.uk/braunstone	England
Bray junior parkrun	53.204793	-6.114437	Ireland	junior Cancellation	2021-06-20	COVID-19 (Coronavirus)	https://www.parkrun.ie/bray-juniors	Leinster
Brayton Academy junior parkrun	53.774828	-1.084158	United Kingdom	junior parkrunning			https://www.parkrun.org.uk/braytonacademy-juniors	England
Breakwater parkrun	44.222662	-76.495865	Canada	5k Cancellation	2021-06-19	COVID-19 (Coronavirus)	https://www.parkrun.ca/breakwater	Ontario
Breckland Leisure Centre junior parkrun	52.421826	0.747829	United Kingdom	junior parkrunning			https://www.parkrun.org.uk/brecklandleisurecentre-juniors	England
Bredasdorp parkrun	-34.543489	20.048509	South Africa	5k Cancellation	2021-06-19	COVID-19 (Coronavirus)	https://www.parkrun.co.za/bredasdorp	Western Cape
Breede Valley parkrun	-33.631633	19.436541	South Africa	5k Cancellation	2021-06-19	COVID-19 (Coronavirus)	https://www.parkrun.co.za/breedevalley	Western Cape
Brentwood junior parkrun	51.623854	0.265978	United Kingdom	junior Cancellation	2021-06-20	COVID-19 (Coronavirus)	https://www.parkrun.org.uk/brentwood-juniors	England
Brentwood parkrun	51.622582	0.266879	United Kingdom	PtR	2021-06-19	COVID-19 (Coronavirus)	https://www.parkrun.org.uk/brentwood	England
Bressay parkrun	60.158081	-1.119683	United Kingdom	5k Cancellation	2021-06-19	COVID-19 (Coronavirus)	https://www.parkrun.org.uk/bressay	Scotland
Brickfields parkrun	53.331707	-6.310669	Ireland	5k Cancellation	2021-06-19	COVID-19 (Coronavirus)	https://www.parkrun.ie/brickfields	Leinster
Bridgend junior parkrun	51.502993	-3.583298	United Kingdom	junior Cancellation	2021-06-20	COVID-19 (Coronavirus)	https://www.parkrun.org.uk/bridgend-juniors	Wales
Bridgetown parkrun	-33.960435	18.526226	South Africa	5k Cancellation	2021-06-19	COVID-19 (Coronavirus)	https://www.parkrun.co.za/bridgetown	Western Cape
Brierley Forest parkrun	53.131155	-1.295214	United Kingdom	PtR	2021-06-19	COVID-19 (Coronavirus)	https://www.parkrun.org.uk/brierleyforest	England
Brighouse junior parkrun	53.70627	-1.776459	United Kingdom	junior parkrunning			https://www.parkrun.org.uk/brighouse-juniors	England
Brighouse parkrun	53.706086	-1.778156	United Kingdom	PtR	2021-06-19	COVID-19 (Coronavirus)	https://www.parkrun.org.uk/brighouse	England
Bright parkrun	-36.743803	146.978	Australia	5k Cancellation	2021-06-19	Responsible Safety precautions Covid associated.	https://www.parkrun.com.au/bright	Victoria
Brighton & Hove parkrun	50.84214	-0.172498	United Kingdom	PtR	2021-06-19	COVID-19 (Coronavirus)	https://www.parkrun.org.uk/brighton	England
Brightwater parkrun	-26.708909	153.113665	Australia	parkrunning			https://www.parkrun.com.au/brightwater	Queensland
Brimbank parkrun	-37.727547	144.834123	Australia	5k Cancellation	2021-06-19	Covid19 restrictions still in place	https://www.parkrun.com.au/brimbank	Victoria
Brixworth Country parkrun	52.318576	-0.895675	United Kingdom	PtR	2021-06-19	COVID-19 (Coronavirus)	https://www.parkrun.org.uk/brixworthcountry	England
Broadbeach Waters parkrun	-28.018497	153.412292	Australia	parkrunning			https://www.parkrun.com.au/broadbeachwaters	Queensland
Broadmeadow junior parkrun	54.344072	-7.643103	United Kingdom	junior Cancellation	2021-06-20	COVID-19 (Coronavirus)	https://www.parkrun.org.uk/broadmeadow-juniors	Northern Ireland
Brockenhurst parkrun	50.821804	-1.568052	United Kingdom	5k Cancellation	2021-06-19	COVID-19 (Coronavirus)	https://www.parkrun.org.uk/brockenhurst	England
Brockwell junior parkrun	51.452603	-0.106505	United Kingdom	junior parkrunning			https://www.parkrun.org.uk/brockwell-juniors	England
Brockwell parkrun, Herne Hill	51.452538	-0.105464	United Kingdom	PtR	2021-06-19	COVID-19 (Coronavirus)	https://www.parkrun.org.uk/brockwell	England
Broken Hill Racecourse parkrun	-31.911528	141.483931	Australia	parkrunning			https://www.parkrun.com.au/brokenhillracecourse	New South Wales
Bromley junior parkrun	51.389329	0.026049	United Kingdom	junior parkrunning			https://www.parkrun.org.uk/bromley-juniors	England
Bromley parkrun	51.386539	0.022874	United Kingdom	PtR	2021-06-19	COVID-19 (Coronavirus)	https://www.parkrun.org.uk/bromley	England
Bromsgrove junior parkrun	52.334159	-2.072308	United Kingdom	junior parkrunning			https://www.parkrun.org.uk/bromsgrove-juniors	England
Bronberrik parkrun	-25.853883	28.171663	South Africa	5k Cancellation	2021-06-19	COVID-19 (Coronavirus)	https://www.parkrun.co.za/bronberrik	Gauteng
Bronkhorstspruit parkrun	-25.80786	28.724885	South Africa	5k Cancellation	2021-06-19	COVID-19 (Coronavirus)	https://www.parkrun.co.za/bronkhorstspruit	Gauteng
Brooklands parkrun	51.346969	-0.471408	United Kingdom	PtR	2021-06-19	COVID-19 (Coronavirus)	https://www.parkrun.org.uk/brooklands	England
Brueton parkrun	52.406754	-1.764593	United Kingdom	PtR	2021-06-19	COVID-19 (Coronavirus)	https://www.parkrun.org.uk/brueton	England
Brumby Wood Rec Ground junior parkrun	53.581186	-0.664778	United Kingdom	junior Cancellation	2021-06-20	COVID-19 (Coronavirus)	https://www.parkrun.org.uk/brumbywoodrecground-juniors	England
Brundall parkrun	52.624133	1.417369	United Kingdom	PtR	2021-06-19	COVID-19 (Coronavirus)	https://www.parkrun.org.uk/brundall	England
Bryanston parkrun	-26.060239	28.04727	South Africa	5k Cancellation	2021-06-19	COVID-19 (Coronavirus)	https://www.parkrun.co.za/bryanston	Gauteng
Bryn Bach junior parkrun	51.783571	-3.267184	United Kingdom	junior Cancellation	2021-06-20	COVID-19 (Coronavirus)	https://www.parkrun.org.uk/brynbach-juniors	Wales
Bryn Bach parkrun	51.781621	-3.269548	United Kingdom	5k Cancellation	2021-06-19	COVID-19 (Coronavirus)	https://www.parkrun.org.uk/brynbach	Wales
Brynaman parkrun	51.806882	-3.871498	United Kingdom	5k Cancellation	2021-06-19	COVID-19 (Coronavirus)	https://www.parkrun.org.uk/brynaman	Wales
Buckingham junior parkrun	51.997232	-0.975386	United Kingdom	junior parkrunning			https://www.parkrun.org.uk/buckingham-juniors	England
Buckingham parkrun	51.998987	-0.984462	United Kingdom	PtR	2021-06-19	COVID-19 (Coronavirus)	https://www.parkrun.org.uk/buckingham	England
Bude Marshes junior parkrun	50.826507	-4.546463	United Kingdom	junior Cancellation	2021-06-20	COVID-19 (Coronavirus)	https://www.parkrun.org.uk/budemarshes-juniors	England
Bugasee parkrun, Kassel	51.292225	9.504789	Germany	5k Cancellation	2021-06-19	COVID-19 (Coronavirus)	https://www.parkrun.com.de/bugasee	Hesse
Bulithando parkrun	-26.304478	28.401457	South Africa	5k Cancellation	2021-06-19	COVID-19 (Coronavirus)	https://www.parkrun.co.za/bulithando	Gauteng
Bunbury parkrun	-33.342966	115.633228	Australia	parkrunning			https://www.parkrun.com.au/bunbury	Western Australia
Buncrana parkrun	55.132338	-7.462667	Ireland	5k Cancellation	2021-06-19	COVID-19 (Coronavirus)	https://www.parkrun.ie/buncrana	Ulster
Bundaberg parkrun	-24.86835	152.330781	Australia	parkrunning			https://www.parkrun.com.au/bundaberg	Queensland
Bunyaville parkrun	-27.377306	152.949138	Australia	parkrunning			https://www.parkrun.com.au/bunyaville	Queensland
Burgess junior parkrun	51.483207	-0.082664	United Kingdom	junior parkrunning			https://www.parkrun.org.uk/burgess-juniors	England
Burgess junior parkrun, County Tipperary	52.855928	-8.261468	Ireland	junior Cancellation	2021-06-20	COVID-19 (Coronavirus)	https://www.parkrun.ie/burgesscountytipperary-juniors	Munster
Burgess parkrun	51.484536	-0.081024	United Kingdom	PtR	2021-06-19	COVID-19 (Coronavirus)	https://www.parkrun.org.uk/burgess	England
Burley Griffin parkrun	-35.292148	149.088585	Australia	parkrunning			https://www.parkrun.com.au/burleygriffin	Australian Capital Territory
Burnage parkrun	53.407152	-2.209185	United Kingdom	PtR	2021-06-19	COVID-19 (Coronavirus)	https://www.parkrun.org.uk/burnage	England
Burnham and Highbridge parkrun	51.226679	-2.990243	United Kingdom	PtR	2021-06-19	COVID-19 (Coronavirus)	https://www.parkrun.org.uk/burnhamandhighbridge	England
Burnham-on-Crouch parkrun	51.627409	0.810923	United Kingdom	PtR	2021-06-19	COVID-19 (Coronavirus)	https://www.parkrun.org.uk/burnhamoncrouch	England
Burnie parkrun	-41.049194	145.905	Australia	parkrunning			https://www.parkrun.com.au/burnie	Tasmania
Burnley junior parkrun	53.777385	-2.219036	United Kingdom	junior parkrunning			https://www.parkrun.org.uk/burnley-juniors	England
Burnley parkrun	53.77834	-2.221555	United Kingdom	PtR	2021-06-19	COVID-19 (Coronavirus)	https://www.parkrun.org.uk/burnley	England
Burslem Park junior parkrun	53.048527	-2.189272	United Kingdom	junior parkrunning			https://www.parkrun.org.uk/burslempark-juniors	England
Burswood Peninsula parkrun	-31.95306	115.887561	Australia	parkrunning			https://www.parkrun.com.au/burswoodpeninsula	Western Australia
Bury St Edmunds junior parkrun	52.244457	0.734698	United Kingdom	junior parkrunning			https://www.parkrun.org.uk/burystedmunds-juniors	England
Bury St Edmunds parkrun	52.224887	0.730183	United Kingdom	PtR	2021-06-19	COVID-19 (Coronavirus)	https://www.parkrun.org.uk/burystedmunds	England
Bushy junior parkrun	51.420504	-0.332639	United Kingdom	junior Cancellation	2021-06-20	COVID-19 (Coronavirus)	https://www.parkrun.org.uk/bushy-juniors	England
Bushy parkrun	51.410992	-0.335791	United Kingdom	PtR	2021-06-19	COVID-19 (Coronavirus)	https://www.parkrun.org.uk/bushy	England
Bushy parkrun, Dublin	53.298951	-6.296455	Ireland	5k Cancellation	2021-06-19	COVID-19 (Coronavirus)	https://www.parkrun.ie/bushydublin	Leinster
Byxbee parkrun	37.451055	-122.105993	USA	5k Cancellation	2021-06-19	COVID-19 (Coronavirus)	https://www.parkrun.us/byxbee	California
Cabinteely parkrun	53.26137	-6.158811	Ireland	5k Cancellation	2021-06-19	COVID-19 (Coronavirus)	https://www.parkrun.ie/cabinteely	Leinster
Caffarella parkrun	41.866851	12.524093	Italy	5k Cancellation	2021-06-19	COVID-19 (Coronavirus)	https://www.parkrun.it/caffarella	Latium
Cairns parkrun	-16.904574	145.763211	Australia	parkrunning			https://www.parkrun.com.au/cairns	Queensland
Calamvale parkrun	-27.620775	153.039287	Australia	parkrunning			https://www.parkrun.com.au/calamvale	Queensland
Caledonian junior parkrun	51.545794	-0.124279	United Kingdom	junior Cancellation	2021-06-20	COVID-19 (Coronavirus)	https://www.parkrun.org.uk/caledonian-juniors	England
California Country parkrun	51.379583	-0.867647	United Kingdom	PtR	2021-06-19	COVID-19 (Coronavirus)	https://www.parkrun.org.uk/californiacountry	England
Callaghan parkrun	-32.894393	151.702098	Australia	5k Cancellation	2021-06-19		https://www.parkrun.com.au/callaghan	New South Wales
Calleya parkrun	-32.126604	115.876176	Australia	parkrunning			https://www.parkrun.com.au/calleya	Western Australia
Cambourne junior parkrun	52.220084	-0.061115	United Kingdom	junior Cancellation	2021-06-20	COVID-19 (Coronavirus)	https://www.parkrun.org.uk/cambourne-juniors	England
Cambridge NZ parkrun	-37.890281	175.435891	New Zealand	parkrunning			https://www.parkrun.co.nz/cambridgenz	Waikato
Cambridge junior parkrun	52.236606	0.163389	United Kingdom	junior Cancellation	2021-06-20	COVID-19 (Coronavirus)	https://www.parkrun.org.uk/cambridge-juniors	England
Cambridge parkrun	52.236675	0.161906	United Kingdom	5k Cancellation	2021-06-19	COVID-19 (Coronavirus)	https://www.parkrun.org.uk/cambridge	England
Campaspe parkrun	-37.354683	144.531445	Australia	5k Cancellation	2021-06-19	Victorian COVID-19 restrictions and storm damage	https://www.parkrun.com.au/campaspe	Victoria
Campbelltown parkrun	-34.018301	150.814819	Australia	parkrunning			https://www.parkrun.com.au/campbelltown	New South Wales
Camperdown parkrun, Dundee	56.483681	-3.030896	United Kingdom	5k Cancellation	2021-06-19	COVID-19 (Coronavirus)	https://www.parkrun.org.uk/camperdown	Scotland
Cannibals Cave parkrun	-28.682918	28.976784	South Africa	parkrunning			https://www.parkrun.co.za/cannibalscave	KwaZulu-Natal
Canning River parkrun	-32.020912	115.92266	Australia	parkrunning			https://www.parkrun.com.au/canningriver	Western Australia
Cannock Chase parkrun	52.73744	-1.99542	United Kingdom	PtR	2021-06-19	COVID-19 (Coronavirus)	https://www.parkrun.org.uk/cannockchase	England
Cannon Hill junior parkrun, Birmingham	52.449976	-1.904225	United Kingdom	junior Cancellation	2021-06-20	COVID-19 (Coronavirus)	https://www.parkrun.org.uk/cannon-hill-juniors	England
Cannon Hill parkrun, Birmingham	52.452637	-1.89997	United Kingdom	PtR	2021-06-19	COVID-19 (Coronavirus)	https://www.parkrun.org.uk/cannonhill	England
Cannonvale junior parkrun	-20.274708	148.700296	Australia	junior Cancellation	2021-06-20	reopening requirements being completed	https://www.parkrun.com.au/cannonvale-juniors	Queensland
Canons Park parkrun	51.612291	-0.296184	United Kingdom	PtR	2021-06-19	COVID-19 (Coronavirus)	https://www.parkrun.org.uk/canonspark	England
Canterbury parkrun	51.299468	1.057002	United Kingdom	PtR	2021-06-19	COVID-19 (Coronavirus)	https://www.parkrun.org.uk/canterbury	England
Canyon Rim Trail parkrun	42.598602	-114.454267	USA	5k Cancellation	2021-06-19	BASE jumping event along course.	https://www.parkrun.us/canyonrimtrail	Idaho
Capalaba parkrun	-27.521405	153.186858	Australia	parkrunning			https://www.parkrun.com.au/capalaba	Queensland
Cape Pembroke Lighthouse parkrun	-51.683211	-57.757716	United Kingdom	parkrunning			https://www.parkrun.org.uk/capepembrokelighthouse	Falkland Islands
Cardiff junior parkrun	51.489617	-3.204035	United Kingdom	junior Cancellation	2021-06-20	COVID-19 (Coronavirus)	https://www.parkrun.org.uk/cardiff-juniors	Wales
Cardiff parkrun	51.49736	-3.207107	United Kingdom	5k Cancellation	2021-06-19	COVID-19 (Coronavirus)	https://www.parkrun.org.uk/cardiff	Wales
Cardwell parkrun	-18.263036	146.025909	Australia	parkrunning			https://www.parkrun.com.au/cardwell	Queensland
Carine Glades parkrun	-31.85155	115.782943	Australia	parkrunning			https://www.parkrun.com.au/carineglades	Western Australia
Carisbrooke parkrun	-34.754627	138.677757	Australia	parkrunning			https://www.parkrun.com.au/carisbrooke	South Australia
Carlisle Park parkrun	55.165172	-1.691159	United Kingdom	5k Cancellation	2021-06-19	COVID-19 (Coronavirus)	https://www.parkrun.org.uk/carlislepark	England
Carlisle junior parkrun	54.899555	-2.936575	United Kingdom	junior parkrunning			https://www.parkrun.org.uk/carlisle-juniors	England
Carlisle parkrun	54.886025	-2.963455	United Kingdom	PtR	2021-06-19	COVID-19 (Coronavirus)	https://www.parkrun.org.uk/carlisle	England
Carlow Town parkrun	52.838536	-6.93414	Ireland	5k Cancellation	2021-06-19	COVID-19 (Coronavirus)	https://www.parkrun.ie/carlowtown	Leinster
Carmarthen junior parkrun	51.854169	-4.315982	United Kingdom	junior Cancellation	2021-06-20	COVID-19 (Coronavirus)	https://www.parkrun.org.uk/carmarthen-juniors	Wales
Carrickfergus parkrun	54.719992	-5.805285	United Kingdom	5k Cancellation	2021-06-19	COVID-19 (Coronavirus)	https://www.parkrun.org.uk/carrickfergus	Northern Ireland
Cascades on Clyde Wetlands parkrun	-38.100383	145.325835	Australia	5k Cancellation	2021-06-19	Victorian COVID restrictions	https://www.parkrun.com.au/cascadesonclydewetlands	Victoria
Cassiobury parkrun	51.657677	-0.406335	United Kingdom	PtR	2021-06-19	COVID-19 (Coronavirus)	https://www.parkrun.org.uk/cassiobury	England
Castle Demense parkrun	51.904698	-8.962054	Ireland	5k Cancellation	2021-06-19	COVID-19 (Coronavirus)	https://www.parkrun.ie/castledemense	Munster
Castle Howard parkrun	54.120303	-0.910925	United Kingdom	5k Cancellation	2021-06-19	COVID-19 (Coronavirus)	https://www.parkrun.org.uk/castlehoward	England
Castle Park junior parkrun	53.292165	-2.730257	United Kingdom	junior Cancellation	2021-06-20	COVID-19 (Coronavirus)	https://www.parkrun.org.uk/castlepark-juniors	England
Castle Park parkrun	51.87167	0.164165	United Kingdom	PtR	2021-06-19	COVID-19 (Coronavirus)	https://www.parkrun.org.uk/castlepark	England
Castlebar parkrun	53.850327	-9.309314	Ireland	5k Cancellation	2021-06-19	COVID-19 (Coronavirus)	https://www.parkrun.ie/castlebar	Connaught
Castleblayney parkrun	54.1219	-6.728947	Ireland	5k Cancellation	2021-06-19	COVID-19 (Coronavirus)	https://www.parkrun.ie/castleblayney	Ulster
Castlehaven parkrun	51.551575	-9.170294	Ireland	5k Cancellation	2021-06-19	COVID-19 (Coronavirus)	https://www.parkrun.ie/castlehaven	Munster
Castlemaine parkrun	-37.050794	144.217649	Australia	5k Cancellation	2021-06-19	Victorian covid-19 restrictions	https://www.parkrun.com.au/castlemaine	Victoria
Castlerea parkrun	53.767763	-8.480996	Ireland	5k Cancellation	2021-06-19	COVID-19 (Coronavirus)	https://www.parkrun.ie/castlerea	Connaught
Castletown parkrun	53.348946	-6.528707	Ireland	5k Cancellation	2021-06-19	COVID-19 (Coronavirus)	https://www.parkrun.ie/castletown	Leinster
Castlewellan parkrun	54.262147	-5.95386	United Kingdom	5k Cancellation	2021-06-19	COVID-19 (Coronavirus)	https://www.parkrun.org.uk/castlewellan	Northern Ireland
Casula Parklands parkrun	-33.948703	150.91369	Australia	parkrunning			https://www.parkrun.com.au/casulaparklands	New South Wales
Catford parkrun	51.44824	-0.00863	United Kingdom	5k Cancellation	2021-06-19	COVID-19 (Coronavirus)	https://www.parkrun.org.uk/catford	England
Catterick parkrun	54.385534	-1.646503	United Kingdom	5k Cancellation	2021-06-19	COVID-19 (Coronavirus)	https://www.parkrun.org.uk/catterick	England
Catton parkrun	52.656696	1.295507	United Kingdom	PtR	2021-06-19	COVID-19 (Coronavirus)	https://www.parkrun.org.uk/catton	England
Centenary parkrun	-22.81841	147.642912	Australia	parkrunning			https://www.parkrun.com.au/centenary	Queensland
Centennial parkrun	-33.898808	151.228564	Australia	parkrunning			https://www.parkrun.com.au/centennial	New South Wales
Central Lakes parkrun	-27.07755	152.973187	Australia	parkrunning			https://www.parkrun.com.au/centrallakes	Queensland
Central Park junior parkrun	52.584576	-0.235072	United Kingdom	junior Cancellation	2021-06-20	COVID-19 (Coronavirus)	https://www.parkrun.org.uk/centralpark-juniors	England
Central parkrun, Burnaby	49.229408	-123.013078	Canada	5k Cancellation	2021-06-19	COVID-19 (Coronavirus)	https://www.parkrun.ca/centralburnaby	British Columbia
Central parkrun, Plymouth	50.385099	-4.151031	United Kingdom	5k Cancellation	2021-06-19	COVID-19 (Coronavirus)	https://www.parkrun.org.uk/centralplymouth	England
Centre Vale parkrun	53.718272	-2.102438	United Kingdom	PtR	2021-06-19	COVID-19 (Coronavirus)	https://www.parkrun.org.uk/centrevale	England
Century City parkrun	-33.888687	18.512412	South Africa	5k Cancellation	2021-06-19	COVID-19 (Coronavirus)	https://www.parkrun.co.za/centurycity	Western Cape
Ceres parkrun	-33.372267	19.300197	South Africa	5k Cancellation	2021-06-19	COVID-19 (Coronavirus)	https://www.parkrun.co.za/ceres	Western Cape
Chadderton Hall parkrun	53.554066	-2.158552	United Kingdom	PtR	2021-06-19	COVID-19 (Coronavirus)	https://www.parkrun.org.uk/chaddertonhall	England
Chain of Lakes parkrun	44.639531	-63.661271	Canada	5k Cancellation	2021-06-19	COVID-19 (Coronavirus)	https://www.parkrun.ca/chainoflakes	Nova Scotia
Chalkwell Beach parkrun	51.536925	0.676231	United Kingdom	PtR	2021-06-19	COVID-19 (Coronavirus)	https://www.parkrun.org.uk/chalkwellbeach	England
Champion Lakes parkrun	-32.106314	115.999535	Australia	parkrunning			https://www.parkrun.com.au/championlakes	Western Australia
Charleston parkrun, South Australia	-34.916841	138.903161	Australia	parkrunning			https://www.parkrun.com.au/charlestonsouthaustralia	South Australia
Charleston parkrun, West Virginia	38.350322	-81.639331	USA	parkrunning			https://www.parkrun.us/charleston	West Virginia
Charleys Creek parkrun	-26.736553	150.623683	Australia	parkrunning			https://www.parkrun.com.au/charleyscreek	Queensland
Chasewater parkrun	52.661987	-1.944407	United Kingdom	PtR	2021-06-19	COVID-19 (Coronavirus)	https://www.parkrun.org.uk/chasewater	England
Cheadle Hulme parkrun	53.379026	-2.210652	United Kingdom	PtR	2021-06-19	COVID-19 (Coronavirus)	https://www.parkrun.org.uk/cheadlehulme	England
Cheddar junior parkrun	51.273808	-2.77921	United Kingdom	junior parkrunning			https://www.parkrun.org.uk/cheddar-juniors	England
Chelmsford Central parkrun	51.732577	0.464945	United Kingdom	PtR	2021-06-19	COVID-19 (Coronavirus)	https://www.parkrun.org.uk/chelmsfordcentral	England
Chelmsford junior parkrun	51.733083	0.466286	United Kingdom	junior parkrunning			https://www.parkrun.org.uk/chelmsford-juniors	England
Chelsea Bicentennial parkrun	-38.049247	145.12656	Australia	5k Cancellation	2021-06-19	Path closure preventing access to the course	https://www.parkrun.com.au/chelseabicentennial	Victoria
Cheltenham junior parkrun	51.886492	-2.088862	United Kingdom	junior parkrunning			https://www.parkrun.org.uk/cheltenham-juniors	England
Cheltenham parkrun	51.911754	-2.07824	United Kingdom	PtR	2021-06-19	COVID-19 (Coronavirus)	https://www.parkrun.org.uk/cheltenham	England
Chermside parkrun	-27.37896	153.033507	Australia	parkrunning			https://www.parkrun.com.au/chermside	Queensland
Cherry Orchard junior parkrun	53.337009	-6.377058	Ireland	junior Cancellation	2021-06-20	COVID-19 (Coronavirus)	https://www.parkrun.ie/cherryorchard-juniors	Leinster
Cheshunt junior parkrun	51.715497	-0.04912	United Kingdom	junior Cancellation	2021-06-20	COVID-19 (Coronavirus)	https://www.parkrun.org.uk/cheshunt-juniors	England
Chester parkrun	53.207796	-2.902368	United Kingdom	PtR	2021-06-19	COVID-19 (Coronavirus)	https://www.parkrun.org.uk/chester	England
Chevin Forest parkrun	53.894133	-1.665858	United Kingdom	5k Cancellation	2021-06-19	COVID-19 (Coronavirus)	https://www.parkrun.org.uk/chevinforest	England
Chichester junior parkrun	50.839693	-0.776619	United Kingdom	junior parkrunning			https://www.parkrun.org.uk/chichester-juniors	England
Chichester parkrun	50.846182	-0.777535	United Kingdom	PtR	2021-06-19	COVID-19 (Coronavirus)	https://www.parkrun.org.uk/chichester	England
Chilton Fields parkrun	52.197076	0.975934	United Kingdom	PtR	2021-06-19	COVID-19 (Coronavirus)	https://www.parkrun.org.uk/chiltonfields	England
Chippenham junior parkrun	51.460235	-2.111954	United Kingdom	junior parkrunning			https://www.parkrun.org.uk/chippenham-juniors	England
Chippenham parkrun	51.460469	-2.113119	United Kingdom	PtR	2021-06-19	COVID-19 (Coronavirus)	https://www.parkrun.org.uk/chippenham	England
Chipping Norton School parkrun	51.93812	-1.54029	United Kingdom	PtR	2021-06-19	COVID-19 (Coronavirus)	https://www.parkrun.org.uk/chippingnortonschool	England
Chipping Norton parkrun	-33.909244	150.964108	Australia	parkrunning			https://www.parkrun.com.au/chippingnorton	New South Wales
Chipping Sodbury parkrun	51.544366	-2.397165	United Kingdom	PtR	2021-06-19	COVID-19 (Coronavirus)	https://www.parkrun.org.uk/chippingsodbury	England
Christiana parkrun	-27.898445	25.151031	South Africa	5k Cancellation	2021-06-19	COVID-19 (Coronavirus)	https://www.parkrun.co.za/christiana	North-West
Christies Beach parkrun	-35.135628	138.46916	Australia	parkrunning			https://www.parkrun.com.au/christiesbeach	South Australia
Church Mead parkrun	51.667191	-0.614472	United Kingdom	5k Cancellation	2021-06-19	COVID-19 (Coronavirus)	https://www.parkrun.org.uk/churchmead	England
Churchill Gardens junior parkrun, Salisbury	51.062559	-1.790559	United Kingdom	junior parkrunning			https://www.parkrun.org.uk/churchillgardens-juniors	England
Churchill Parkway parkrun	49.866258	-97.114076	Canada	5k Cancellation	2021-06-19	COVID-19 (Coronavirus)	https://www.parkrun.ca/churchillparkway	Manitoba
Churchill parkrun	-38.312871	146.422465	Australia	5k Cancellation	2021-06-19	COVID-19 Restrictions	https://www.parkrun.com.au/churchill	Victoria
Cirencester parkrun	51.711207	-1.99109	United Kingdom	PtR	2021-06-19	COVID-19 (Coronavirus)	https://www.parkrun.org.uk/cirencester	England
Citypark parkrun, Craigavon	54.451093	-6.386002	United Kingdom	5k Cancellation	2021-06-19	COVID-19 (Coronavirus)	https://www.parkrun.org.uk/citypark	Northern Ireland
Clacton Seafront parkrun	51.781574	1.142974	United Kingdom	PtR	2021-06-19	COVID-19 (Coronavirus)	https://www.parkrun.org.uk/clactonseafront	England
Clacton junior parkrun	51.781588	1.142953	United Kingdom	junior parkrunning			https://www.parkrun.org.uk/clacton-juniors	England
Clair parkrun	51.004322	-0.100143	United Kingdom	PtR	2021-06-19	COVID-19 (Coronavirus)	https://www.parkrun.org.uk/clair	England
Claisebrook Cove parkrun	-31.950868	115.881884	Australia	parkrunning			https://www.parkrun.com.au/claisebrookcove	Western Australia
Clapham Common parkrun	51.455873	-0.151331	United Kingdom	PtR	2021-06-19	COVID-19 (Coronavirus)	https://www.parkrun.org.uk/claphamcommon	England
Clare Castle parkrun	52.076428	0.581882	United Kingdom	PtR	2021-06-19	COVID-19 (Coronavirus)	https://www.parkrun.org.uk/clarecastle	England
Clare Valley parkrun	-33.866335	138.625011	Australia	parkrunning			https://www.parkrun.com.au/clarevalley	South Australia
Claremorris parkrun	53.712598	-8.997864	Ireland	5k Cancellation	2021-06-19	COVID-19 (Coronavirus)	https://www.parkrun.ie/claremorris	Connaught
Clarens parkrun	-28.514776	28.419728	South Africa	parkrunning			https://www.parkrun.co.za/clarens	Orange Free State
Clarisford parkrun	52.796642	-8.441796	Ireland	5k Cancellation	2021-06-19	COVID-19 (Coronavirus)	https://www.parkrun.ie/clarisford	Munster
Cleethorpes parkrun	53.541552	-0.025384	United Kingdom	PtR	2021-06-19	COVID-19 (Coronavirus)	https://www.parkrun.org.uk/cleethorpes	England
Cleland parkrun	-34.964185	138.698602	Australia	parkrunning			https://www.parkrun.com.au/cleland	South Australia
Clermont Waterfront parkrun	28.557404	-81.770446	USA	parkrunning			https://www.parkrun.us/clermontwaterfront	Florida
Clevedon Salthouse Fields parkrun	51.434573	-2.866505	United Kingdom	PtR	2021-06-19	COVID-19 (Coronavirus)	https://www.parkrun.org.uk/clevedonsalthousefields	England
Cleveland parkrun	-27.539355	153.274298	Australia	parkrunning			https://www.parkrun.com.au/cleveland	Queensland
Cliff Park junior parkrun	51.937792	1.28484	United Kingdom	junior parkrunning			https://www.parkrun.org.uk/cliffpark-juniors	England
Cliffe Castle parkrun	53.874658	-1.913364	United Kingdom	PtR	2021-06-19	COVID-19 (Coronavirus)	https://www.parkrun.org.uk/cliffecastle	England
Clifton parkrun	52.907144	-1.163033	United Kingdom	PtR	2021-06-19	COVID-19 (Coronavirus)	https://www.parkrun.org.uk/clifton	England
Clitheroe Castle junior parkrun	53.870606	-2.394122	United Kingdom	junior parkrunning			https://www.parkrun.org.uk/clitheroecastle-juniors	England
Clitheroe Castle parkrun	53.870346	-2.39478	United Kingdom	PtR	2021-06-19	COVID-19 (Coronavirus)	https://www.parkrun.org.uk/clitheroecastle	England
Clonakilty parkrun	51.617636	-8.89884	Ireland	5k Cancellation	2021-06-19	COVID-19 (Coronavirus)	https://www.parkrun.ie/clonakilty	Munster
Clonbur Woods parkrun	53.547406	-9.361828	Ireland	5k Cancellation	2021-06-19	COVID-19 (Coronavirus)	https://www.parkrun.ie/clonburwoods	Connaught
Cloncurry parkrun	-20.70873	140.519814	Australia	parkrunning			https://www.parkrun.com.au/cloncurry	Queensland
Clonmel parkrun	52.352179	-7.694956	Ireland	5k Cancellation	2021-06-19	COVID-19 (Coronavirus)	https://www.parkrun.ie/clonmel	Munster
Clough Hall junior parkrun	53.083194	-2.249699	United Kingdom	junior parkrunning			https://www.parkrun.org.uk/cloughhall-juniors	England
Clover Point parkrun	48.40457	-123.350007	Canada	5k Cancellation	2021-06-19	COVID-19 (Coronavirus)	https://www.parkrun.ca/cloverpoint	British Columbia
Clumber Park parkrun	53.268022	-1.065717	United Kingdom	PtR	2021-06-19	COVID-19 (Coronavirus)	https://www.parkrun.org.uk/clumberpark	England
Cobar parkrun	-31.509832	145.831405	Australia	parkrunning			https://www.parkrun.com.au/cobar	New South Wales
Cobh junior parkrun	51.85475	-8.283644	Ireland	junior Cancellation	2021-06-20	COVID-19 (Coronavirus)	https://www.parkrun.ie/cobh-juniors	Munster
Cobram parkrun	-35.913461	145.668554	Australia	5k Cancellation	2021-06-19	Victorian lockdown restrictions	https://www.parkrun.com.au/cobram	Victoria
Coburg parkrun	-37.733811	144.968861	Australia	5k Cancellation	2021-06-19	Victorian COVID restrictions	https://www.parkrun.com.au/coburg	Victoria
Coed Cefn-pwll-du parkrun	51.591855	-3.140954	United Kingdom	5k Cancellation	2021-06-19	COVID-19 (Coronavirus)	https://www.parkrun.org.uk/coedcefnpwlldu	Wales
Coffs Harbour parkrun	-30.295687	153.1376	Australia	parkrunning			https://www.parkrun.com.au/coffsharbour	New South Wales
Cohuna parkrun	-35.809232	144.223054	Australia	5k Cancellation	2021-06-19	due to current Covid restrictions .	https://www.parkrun.com.au/cohuna	Victoria
Colby parkrun	51.74064	-4.669924	United Kingdom	5k Cancellation	2021-06-19	COVID-19 (Coronavirus)	https://www.parkrun.org.uk/colby	Wales
Colchester Castle parkrun	51.89167	0.902724	United Kingdom	PtR	2021-06-19	COVID-19 (Coronavirus)	https://www.parkrun.org.uk/colchestercastle	England
Colchester junior parkrun	51.87996	0.919969	United Kingdom	junior Cancellation	2021-06-20	COVID-19 (Coronavirus)	https://www.parkrun.org.uk/colchester-juniors	England
Coldham's Common junior parkrun	52.208437	0.15458	United Kingdom	junior parkrunning			https://www.parkrun.org.uk/coldhamscommon-juniors	England
Coldham's Common parkrun	52.206705	0.158881	United Kingdom	PtR	2021-06-19	COVID-19 (Coronavirus)	https://www.parkrun.org.uk/coldhamscommon	England
Colin Glen parkrun	54.570723	-6.020504	United Kingdom	5k Cancellation	2021-06-19	COVID-19 (Coronavirus)	https://www.parkrun.org.uk/colinglen	Northern Ireland
College Park parkrun	38.999103	-76.932737	USA	parkrunning			https://www.parkrun.us/collegepark	Maryland
Collett Park junior parkrun	51.187461	-2.542572	United Kingdom	junior parkrunning			https://www.parkrun.org.uk/collettpark-juniors	England
Collie River Trail parkrun	-33.357664	116.156872	Australia	parkrunning			https://www.parkrun.com.au/collierivertrail	Western Australia
Colney Lane parkrun	52.621317	1.22519	United Kingdom	PtR	2021-06-19	COVID-19 (Coronavirus)	https://www.parkrun.org.uk/colneylane	England
Colwick parkrun	52.945171	-1.09786	United Kingdom	PtR	2021-06-19	COVID-19 (Coronavirus)	https://www.parkrun.org.uk/colwick	England
Comber junior parkrun	54.549098	-5.739909	United Kingdom	junior parkrunning			https://www.parkrun.org.uk/comber-juniors	Northern Ireland
Comber parkrun	54.549593	-5.740415	United Kingdom	5k Cancellation	2021-06-19	COVID-19 (Coronavirus)	https://www.parkrun.org.uk/comber	Northern Ireland
Con Smith parkrun	54.00096	-7.356701	Ireland	5k Cancellation	2021-06-19	COVID-19 (Coronavirus)	https://www.parkrun.ie/consmith	Ulster
Concord parkrun, Sheffield	53.424007	-1.441612	United Kingdom	PtR	2021-06-19	COVID-19 (Coronavirus)	https://www.parkrun.org.uk/concord	England
Congleton parkrun	53.160781	-2.229795	United Kingdom	PtR	2021-06-19	COVID-19 (Coronavirus)	https://www.parkrun.org.uk/congleton	England
Conkers parkrun	52.739475	-1.543021	United Kingdom	PtR	2021-06-19	COVID-19 (Coronavirus)	https://www.parkrun.org.uk/conkers	England
Constantia Greenbelt parkrun	-34.008575	18.440688	South Africa	5k Cancellation	2021-06-19	COVID-19 (Coronavirus)	https://www.parkrun.co.za/constantiagreenbelt	Western Cape
Conwy Nature Reserve junior parkrun	53.279512	-3.809626	United Kingdom	junior Cancellation	2021-06-20	COVID-19 (Coronavirus)	https://www.parkrun.org.uk/conwynaturereserve-juniors	Wales
Conwy parkrun	53.279388	-3.808966	United Kingdom	5k Cancellation	2021-06-19	COVID-19 (Coronavirus)	https://www.parkrun.org.uk/conwy	Wales
Conyngham Hall parkrun	54.011758	-1.479507	United Kingdom	PtR	2021-06-19	COVID-19 (Coronavirus)	https://www.parkrun.org.uk/conynghamhall	England
Cooks River parkrun	-33.913708	151.116857	Australia	parkrunning			https://www.parkrun.com.au/cooksriver	New South Wales
Coole parkrun	53.093422	-8.838605	Ireland	5k Cancellation	2021-06-19	COVID-19 (Coronavirus)	https://www.parkrun.ie/coole	Connaught
Coombs parkrun	-35.326215	149.047518	Australia	parkrunning			https://www.parkrun.com.au/coombs	Australian Capital Territory
Coomera parkrun	-27.885247	153.281709	Australia	parkrunning			https://www.parkrun.com.au/coomera	Queensland
Cootehill parkrun	54.081471	-7.086978	Ireland	5k Cancellation	2021-06-19	COVID-19 (Coronavirus)	https://www.parkrun.ie/cootehill	Ulster
Corby parkrun	52.493879	-0.691774	United Kingdom	PtR	2021-06-19	COVID-19 (Coronavirus)	https://www.parkrun.org.uk/corby	England
Corkagh parkrun	53.315227	-6.410276	Ireland	5k Cancellation	2021-06-19	COVID-19 (Coronavirus)	https://www.parkrun.ie/corkagh	Leinster
Cormorant Bay parkrun	-27.401736	152.622246	Australia	parkrunning			https://www.parkrun.com.au/cormorantbay	Queensland
Cornwall parkrun	-36.895495	174.789414	New Zealand	parkrunning			https://www.parkrun.co.nz/cornwall	Auckland
Cosmeston Lakes parkrun	51.418047	-3.185615	United Kingdom	5k Cancellation	2021-06-19	COVID-19 (Coronavirus)	https://www.parkrun.org.uk/cosmestonlakes	Wales
Cotsford Fields parkrun	54.759499	-1.30077	United Kingdom	PtR	2021-06-19	COVID-19 (Coronavirus)	https://www.parkrun.org.uk/cotsfordfields	England
Cottesloe parkrun	-32.006479	115.75182	Australia	parkrunning			https://www.parkrun.com.au/cottesloe	Western Australia
Coventry parkrun	52.39172	-1.524026	United Kingdom	PtR	2021-06-19	COVID-19 (Coronavirus)	https://www.parkrun.org.uk/coventry	England
Cowpasture Reserve parkrun, Camden	-34.053665	150.700727	Australia	parkrunning			https://www.parkrun.com.au/cowpasturereservecamden	New South Wales
Cowra parkrun	-33.812714	148.703733	Australia	parkrunning			https://www.parkrun.com.au/cowra	New South Wales
Cranbrook Country Park junior parkrun	50.751359	-3.408137	United Kingdom	junior parkrunning			https://www.parkrun.org.uk/cranbrookcountrypark-juniors	England
Crane Park parkrun	51.441168	-0.372075	United Kingdom	5k Cancellation	2021-06-19	COVID-19 (Coronavirus)	https://www.parkrun.org.uk/crane	England
Cranleigh junior parkrun	51.138393	-0.492747	United Kingdom	junior parkrunning			https://www.parkrun.org.uk/cranleigh-juniors	England
Cranleigh parkrun	51.13819	-0.49151	United Kingdom	PtR	2021-06-19	COVID-19 (Coronavirus)	https://www.parkrun.org.uk/cranleigh	England
Crathes Castle parkrun	57.061178	-2.440954	United Kingdom	5k Cancellation	2021-06-19	COVID-19 (Coronavirus)	https://www.parkrun.org.uk/crathescastle	Scotland
Crawfordsburn Country parkrun	54.666682	-5.729434	United Kingdom	5k Cancellation	2021-06-19	COVID-19 (Coronavirus)	https://www.parkrun.org.uk/crawfordsburncountry	Northern Ireland
Creekside parkrun	35.891735	-79.934662	USA	5k Cancellation	2021-06-19	COVID-19 (Coronavirus)	https://www.parkrun.us/creekside	North Carolina
Crewe parkrun	53.097388	-2.470556	United Kingdom	PtR	2021-06-19	COVID-19 (Coronavirus)	https://www.parkrun.org.uk/crewe	England
Crichton parkrun	55.050773	-3.594589	United Kingdom	5k Cancellation	2021-06-19	COVID-19 (Coronavirus)	https://www.parkrun.org.uk/crichton	Scotland
Crissy Field parkrun	37.806567	-122.448792	USA	5k Cancellation	2021-06-19	COVID-19 (Coronavirus)	https://www.parkrun.us/crissyfield	California
Cronulla parkrun	-34.040937	151.161836	Australia	parkrunning			https://www.parkrun.com.au/cronulla	New South Wales
Crosby parkrun	53.48269	-3.046711	United Kingdom	PtR	2021-06-19	COVID-19 (Coronavirus)	https://www.parkrun.org.uk/crosby	England
Cross Flatts junior parkrun	53.776611	-1.558242	United Kingdom	junior parkrunning			https://www.parkrun.org.uk/crossflatts-juniors	England
Cross Flatts parkrun	53.775754	-1.55757	United Kingdom	PtR	2021-06-19	COVID-19 (Coronavirus)	https://www.parkrun.org.uk/crossflatts	England
Crosserlough junior parkrun	53.861926	-7.316544	Ireland	junior Cancellation	2021-06-20	COVID-19 (Coronavirus)	https://www.parkrun.ie/crosserlough-juniors	Ulster
Croxteth Hall parkrun	53.44217	-2.891774	United Kingdom	PtR	2021-06-19	COVID-19 (Coronavirus)	https://www.parkrun.org.uk/croxtethhall	England
Crystal Palace junior parkrun	51.419792	-0.06577	United Kingdom	junior parkrunning			https://www.parkrun.org.uk/crystalpalace-juniors	England
Crystal Palace parkrun	51.419846	-0.065703	United Kingdom	PtR	2021-06-19	COVID-19 (Coronavirus)	https://www.parkrun.org.uk/crystalpalace	England
Cuerden Valley parkrun	53.708614	-2.659442	United Kingdom	5k Cancellation	2021-06-19	COVID-19 (Coronavirus)	https://www.parkrun.org.uk/cuerdenvalley	England
Curl Curl parkrun	-33.766483	151.282339	Australia	parkrunning			https://www.parkrun.com.au/curlcurl	New South Wales
Cusworth Hall parkrun	53.529479	-1.177617	United Kingdom	PtR	2021-06-19	COVID-19 (Coronavirus)	https://www.parkrun.org.uk/cusworthhall	England
Cwmbran parkrun	51.656234	-3.013498	United Kingdom	5k Cancellation	2021-06-19	COVID-19 (Coronavirus)	https://www.parkrun.org.uk/cwmbran	Wales
Cyclopark parkrun	51.419922	0.352561	United Kingdom	PtR	2021-06-19	COVID-19 (Coronavirus)	https://www.parkrun.org.uk/cyclopark	England
Dalby Forest parkrun	54.273821	-0.686599	United Kingdom	5k Cancellation	2021-06-19	COVID-19 (Coronavirus)	https://www.parkrun.org.uk/dalbyforest	England
Dalby parkrun	-27.188036	151.262339	Australia	parkrunning			https://www.parkrun.com.au/dalby	Queensland
Dandenong parkrun	-37.991139	145.215644	Australia	5k Cancellation	2021-06-19	COVID-19 Restrictions	https://www.parkrun.com.au/dandenong	Victoria
Danehy Park parkrun	42.389507	-71.137528	USA	5k Cancellation	2021-06-19	COVID-19 (Coronavirus)	https://www.parkrun.us/danehypark	Massachusetts
Darebin parkrun	-37.721239	145.034293	Australia	5k Cancellation	2021-06-19	Vic Govt COVID restrictions	https://www.parkrun.com.au/darebin	Victoria
Darlington South Park parkrun	54.51484	-1.560531	United Kingdom	PtR	2021-06-19	COVID-19 (Coronavirus)	https://www.parkrun.org.uk/darlingtonsouthpark	England
Darndale parkrun	53.402785	-6.18863	Ireland	5k Cancellation	2021-06-19	COVID-19 (Coronavirus)	https://www.parkrun.ie/darndale	Leinster
Dartford Heath parkrun	51.435932	0.189929	United Kingdom	PtR	2021-06-19	COVID-19 (Coronavirus)	https://www.parkrun.org.uk/dartfordheath	England
Dartford junior parkrun	51.44107	0.219065	United Kingdom	junior parkrunning			https://www.parkrun.org.uk/dartford-juniors	England
Dartford parkrun	51.439141	0.220166	United Kingdom	PtR	2021-06-19	COVID-19 (Coronavirus)	https://www.parkrun.org.uk/dartford	England
Darwin parkrun	-12.466925	130.840725	Australia	parkrunning			https://www.parkrun.com.au/darwin	Northern Territory
Daventry junior parkrun	52.255003	-1.188517	United Kingdom	junior parkrunning			https://www.parkrun.org.uk/daventry-juniors	England
Daventry parkrun	52.262374	-1.15732	United Kingdom	PtR	2021-06-19	COVID-19 (Coronavirus)	https://www.parkrun.org.uk/daventry	England
Dawesville parkrun	-32.625918	115.640914	Australia	parkrunning			https://www.parkrun.com.au/dawesville	Western Australia
Dean Castle Country Park parkrun	55.622901	-4.482932	United Kingdom	5k Cancellation	2021-06-19	COVID-19 (Coronavirus)	https://www.parkrun.org.uk/deancastlecountrypark	Scotland
Deep Run parkrun	37.624069	-77.586806	USA	parkrunning			https://www.parkrun.us/deeprun	Virginia
Deerpark Forest parkrun, Virginia	53.836235	-7.103269	Ireland	5k Cancellation	2021-06-19	COVID-19 (Coronavirus)	https://www.parkrun.ie/deerparkforest	Ulster
Deerpark junior parkrun	53.293443	-6.218187	Ireland	junior Cancellation	2021-06-20	COVID-19 (Coronavirus)	https://www.parkrun.ie/deerpark-juniors	Leinster
Deerpark parkrun, Carlanstown	53.765863	-6.836092	Ireland	5k Cancellation	2021-06-19	COVID-19 (Coronavirus)	https://www.parkrun.ie/deerparkcarlanstown	Leinster
Delamere parkrun	53.239537	-2.68796	United Kingdom	5k Cancellation	2021-06-19	COVID-19 (Coronavirus)	https://www.parkrun.org.uk/delamere	England
Delaware and Raritan Canal parkrun	40.509927	-74.575724	USA	parkrunning			https://www.parkrun.us/delawareandraritancanal	New Jersey
Delta parkrun	-26.125349	28.009354	South Africa	5k Cancellation	2021-06-19	COVID-19 (Coronavirus)	https://www.parkrun.co.za/delta	Gauteng
Depot Park parkrun	29.643726	-82.321475	USA	5k Cancellation	2021-06-19	event conflict, Freedom Walk; key paths unusable	https://www.parkrun.us/depotpark	Florida
Derby Park junior parkrun	53.45145	-2.979622	United Kingdom	junior Cancellation	2021-06-20	COVID-19 (Coronavirus)	https://www.parkrun.org.uk/derbypark-juniors	England
Derry City junior parkrun	55.000642	-7.304701	United Kingdom	junior Cancellation	2021-06-20	COVID-19 (Coronavirus)	https://www.parkrun.org.uk/derrycity-juniors	Northern Ireland
Derry City parkrun	55.006966	-7.318933	United Kingdom	5k Cancellation	2021-06-19	COVID-19 (Coronavirus)	https://www.parkrun.org.uk/derrycity	Northern Ireland
Des Connor Park junior parkrun	-27.441892	152.978964	Australia	junior parkrunning			https://www.parkrun.com.au/desconnorpark-juniors	Queensland
Des Moines Creek parkrun	47.40419	-122.329949	USA	5k Cancellation	2021-06-19	COVID-19 (Coronavirus)	https://www.parkrun.us/desmoinescreek	Washington
Desborough Green Space junior parkrun	52.446059	-0.819338	United Kingdom	junior parkrunning			https://www.parkrun.org.uk/desboroughgreenspace-juniors	England
Devonport junior parkrun	50.376471	-4.172108	United Kingdom	junior parkrunning			https://www.parkrun.org.uk/devonport-juniors	England
Devonport parkrun	-41.162847	146.356321	Australia	parkrunning			https://www.parkrun.com.au/devonport	Tasmania
Dewsbury junior parkrun	53.688984	-1.646944	United Kingdom	junior parkrunning			https://www.parkrun.org.uk/dewsbury-juniors	England
Dewsbury parkrun	53.688218	-1.646275	United Kingdom	PtR	2021-06-19	COVID-19 (Coronavirus)	https://www.parkrun.org.uk/dewsbury	England
Diamond Creek parkrun	-37.673576	145.153249	Australia	5k Cancellation	2021-06-19	Melbourne COVID lockdown restrictions	https://www.parkrun.com.au/diamondcreek	Victoria
Didcot parkrun	51.612792	-1.239	United Kingdom	PtR	2021-06-19	COVID-19 (Coronavirus)	https://www.parkrun.org.uk/didcot	England
Dietenbach parkrun	47.999723	7.805913	Germany	5k Cancellation	2021-06-19	COVID-19 (Coronavirus)	https://www.parkrun.com.de/dietenbach	Baden-Württemberg
Dinton Pastures parkrun	51.440292	-0.880056	United Kingdom	PtR	2021-06-19	COVID-19 (Coronavirus)	https://www.parkrun.org.uk/dintonpastures	England
Dishley parkrun, Loughborough	52.787485	-1.234785	United Kingdom	PtR	2021-06-19	COVID-19 (Coronavirus)	https://www.parkrun.org.uk/dishleyloughborough	England
Dixton junior parkrun, Monmouth	51.815864	-2.707755	United Kingdom	junior parkrunning			https://www.parkrun.org.uk/dixton-juniors	Wales
Doddington Hall parkrun	53.222149	-0.650558	United Kingdom	PtR	2021-06-19	COVID-19 (Coronavirus)	https://www.parkrun.org.uk/doddingtonhall	England
Dolgellau parkrun	52.744574	-3.886527	United Kingdom	5k Cancellation	2021-06-19	COVID-19 (Coronavirus)	https://www.parkrun.org.uk/dolgellau	Wales
Dolls Point parkrun	-33.995775	151.144928	Australia	parkrunning			https://www.parkrun.com.au/dollspoint	New South Wales
Donabate parkrun	53.486227	-6.167897	Ireland	5k Cancellation	2021-06-19	COVID-19 (Coronavirus)	https://www.parkrun.ie/donabate	Leinster
Doornhoek Farm parkrun	-24.566348	27.425911	South Africa	5k Cancellation	2021-06-19	Covid hotspot	https://www.parkrun.co.za/doornhoekfarm	Limpopo
Doornkop Military Base parkrun	-26.264108	27.960613	South Africa	5k Cancellation	2021-06-19	COVID-19 (Coronavirus)	https://www.parkrun.co.za/doornkopmilitarybase	Gauteng
Dover junior parkrun	51.14766	1.269228	United Kingdom	junior Cancellation	2021-06-20	COVID-19 (Coronavirus)	https://www.parkrun.org.uk/dover-juniors	England
Dowds Farm junior parkrun	50.931244	-1.304687	United Kingdom	junior parkrunning			https://www.parkrun.org.uk/dowdsfarm-juniors	England
Downsview parkrun	43.74385	-79.479977	Canada	5k Cancellation	2021-06-19	COVID-19 (Coronavirus)	https://www.parkrun.ca/downsview	Ontario
Dr Bill Hammond Trails parkrun	26.781835	-81.735033	USA	5k Cancellation	2021-06-19	COVID-19 (Coronavirus)	https://www.parkrun.us/drbillhammondtrails	Florida
Dreiländergarten parkrun	47.586611	7.610583	Germany	5k Cancellation	2021-06-19	COVID-19 (Coronavirus)	https://www.parkrun.com.de/dreilaendergarten	Baden-Württemberg
Drumblade parkrun	-26.434129	28.005427	South Africa	5k Cancellation	2021-06-19	COVID-19 (Coronavirus)	https://www.parkrun.co.za/drumblade	Gauteng
Drumchapel parkrun	55.91688	-4.350674	United Kingdom	5k Cancellation	2021-06-19	COVID-19 (Coronavirus)	https://www.parkrun.org.uk/drumchapel	Scotland
Drumpellier Country parkrun	55.871588	-4.065615	United Kingdom	5k Cancellation	2021-06-19	COVID-19 (Coronavirus)	https://www.parkrun.org.uk/drumpelliercountry	Scotland
Drumpellier junior parkrun	55.872855	-4.068698	United Kingdom	junior Cancellation	2021-06-20	COVID-19 (Coronavirus)	https://www.parkrun.org.uk/drumpellier-juniors	Scotland
Druridge Bay parkrun	55.292765	-1.572348	United Kingdom	PtR	2021-06-19	COVID-19 (Coronavirus)	https://www.parkrun.org.uk/druridgebay	England
Dubbo parkrun	-32.256257	148.591034	Australia	parkrunning			https://www.parkrun.com.au/dubbo	New South Wales
Dudley parkrun	52.490027	-2.134568	United Kingdom	PtR	2021-06-19	COVID-19 (Coronavirus)	https://www.parkrun.org.uk/dudley	England
Duffins Trail parkrun	43.853253	-79.061685	Canada	5k Cancellation	2021-06-19	COVID-19 (Coronavirus)	https://www.parkrun.ca/duffinstrail	Ontario
Duikersdrift parkrun, Tulbagh	-33.259059	19.128404	South Africa	5k Cancellation	2021-06-19	COVID-19 (Coronavirus)	https://www.parkrun.co.za/duikersdrift	Western Cape
Dukeries junior parkrun	53.207905	-0.997203	United Kingdom	junior parkrunning			https://www.parkrun.org.uk/dukeries-juniors	England
Dullstroom parkrun	-25.405517	30.10707	South Africa	5k Cancellation	2021-06-19	COVID-19 (Coronavirus)	https://www.parkrun.co.za/dullstroom	Mpumalanga
Duloch junior parkrun	56.062493	-3.401857	United Kingdom	junior Cancellation	2021-06-20	COVID-19 (Coronavirus)	https://www.parkrun.org.uk/duloch-juniors	Scotland
Dulwich parkrun	51.443869	-0.079206	United Kingdom	PtR	2021-06-19	COVID-19 (Coronavirus)	https://www.parkrun.org.uk/dulwich	England
Dumfries junior parkrun	55.062707	-3.606924	United Kingdom	junior Cancellation	2021-06-20	COVID-19 (Coronavirus)	https://www.parkrun.org.uk/dumfries-juniors	Scotland
Dundalk IT junior parkrun	53.984453	-6.38781	Ireland	junior Cancellation	2021-06-20	COVID-19 (Coronavirus)	https://www.parkrun.ie/dundalkit-juniors	Leinster
Dundalk parkrun	53.984567	-6.386803	Ireland	5k Cancellation	2021-06-19	COVID-19 (Coronavirus)	https://www.parkrun.ie/dundalk	Leinster
Dunedin parkrun	-45.857088	170.519225	New Zealand	parkrunning			https://www.parkrun.co.nz/dunedin	Otago
Dunfermline parkrun	56.070684	-3.470694	United Kingdom	5k Cancellation	2021-06-19	COVID-19 (Coronavirus)	https://www.parkrun.org.uk/dunfermline	Scotland
Dungannon Park parkrun	54.489432	-6.755359	United Kingdom	5k Cancellation	2021-06-19	COVID-19 (Coronavirus)	https://www.parkrun.org.uk/dungannonpark	Northern Ireland
Dungloe parkrun	54.952769	-8.348957	Ireland	5k Cancellation	2021-06-19	COVID-19 (Coronavirus)	https://www.parkrun.ie/dungloe	Ulster
Dunstable Downs parkrun	51.865432	-0.537791	United Kingdom	PtR	2021-06-19	COVID-19 (Coronavirus)	https://www.parkrun.org.uk/dunstabledowns	England
Durban Point parkrun	-29.864284	31.043293	South Africa	5k Cancellation	2021-06-19	COVID-19 (Coronavirus)	https://www.parkrun.co.za/durbanpoint	KwaZulu-Natal
Durbanville parkrun	-33.801551	18.621833	South Africa	5k Cancellation	2021-06-19	COVID-19 (Coronavirus)	https://www.parkrun.co.za/durbanville	Western Cape
Durham City junior parkrun	54.775551	-1.564287	United Kingdom	junior parkrunning			https://www.parkrun.org.uk/durhamcity-juniors	England
Durham NC parkrun	35.955931	-78.926382	USA	parkrunning			https://www.parkrun.us/durhamnc	North Carolina
Durham parkrun	54.767605	-1.558852	United Kingdom	PtR	2021-06-19	COVID-19 (Coronavirus)	https://www.parkrun.org.uk/durham	England
Dusi parkrun	-29.611438	30.380781	South Africa	5k Cancellation	2021-06-19	COVID-19 (Coronavirus)	https://www.parkrun.co.za/dusi	KwaZulu-Natal
Duthie junior parkrun	57.131553	-2.105342	United Kingdom	junior Cancellation	2021-06-20	COVID-19 (Coronavirus)	https://www.parkrun.org.uk/duthie-juniors	Scotland
Dømmesmoen parkrun	58.354828	8.574346	Norway	5k Cancellation	2021-06-19	COVID-19 (Coronavirus)	https://www.parkrun.no/dommesmoen	Agder
Eagan parkrun	44.797663	-93.175378	USA	parkrunning			https://www.parkrun.us/eagan	Minnesota
East Brighton parkrun	50.818691	-0.099373	United Kingdom	PtR	2021-06-19	COVID-19 (Coronavirus)	https://www.parkrun.org.uk/eastbrighton	England
East Coast Park parkrun	1.294954	103.893129	Singapore	5k Cancellation	2021-06-19	COVID-19 (Coronavirus)	https://www.parkrun.sg/eastcoastpark	Singapore
East End parkrun, New Plymouth	-39.048356	174.093589	New Zealand	parkrunning			https://www.parkrun.co.nz/eastend	Taranaki
East Grinstead parkrun	51.129008	0.001373	United Kingdom	PtR	2021-06-19	COVID-19 (Coronavirus)	https://www.parkrun.org.uk/eastgrinstead	England
East Park parkrun	52.579042	-2.101975	United Kingdom	PtR	2021-06-19	COVID-19 (Coronavirus)	https://www.parkrun.org.uk/eastpark	England
East Richmond parkrun	-33.604814	150.774321	Australia	parkrunning			https://www.parkrun.com.au/eastrichmond	New South Wales
Eastbourne junior parkrun	50.76191	0.286914	United Kingdom	junior Cancellation	2021-06-20	Eastbourne 10km on the Prom we use	https://www.parkrun.org.uk/eastbourne-juniors	England
Eastbourne parkrun	50.806248	0.290451	United Kingdom	PtR	2021-06-19	COVID-19 (Coronavirus)	https://www.parkrun.org.uk/eastbourne	England
Eastern Gardens parkrun	-38.147322	144.378578	Australia	5k Cancellation	2021-06-19	Due to Victorian Government COVID-19 restrictions.	https://www.parkrun.com.au/easterngardens	Victoria
Eastleigh parkrun	50.971433	-1.374032	United Kingdom	PtR	2021-06-19	COVID-19 (Coronavirus)	https://www.parkrun.org.uk/eastleigh	England
Eastney junior parkrun	50.789698	-1.054334	United Kingdom	junior parkrunning			https://www.parkrun.org.uk/eastney-juniors	England
Eastville junior parkrun	51.476132	-2.554961	United Kingdom	junior parkrunning			https://www.parkrun.org.uk/eastville-juniors	England
Eastville parkrun	51.475453	-2.554304	United Kingdom	PtR	2021-06-19	COVID-19 (Coronavirus)	https://www.parkrun.org.uk/eastville	England
Eaton junior parkrun	52.619606	1.25856	United Kingdom	junior parkrunning			https://www.parkrun.org.uk/eaton-juniors	England
Ebotse parkrun	-26.146747	28.352306	South Africa	5k Cancellation	2021-06-19	COVID-19 (Coronavirus)	https://www.parkrun.co.za/ebotse	Gauteng
Echuca Moama parkrun	-36.139104	144.739213	Australia	5k Cancellation	2021-06-19	State Government restrictions	https://www.parkrun.com.au/echucamoama	Victoria
Ecos parkrun, Ballymena	54.867371	-6.259117	United Kingdom	5k Cancellation	2021-06-19	COVID-19 (Coronavirus)	https://www.parkrun.org.uk/ecos	Northern Ireland
Eden Project parkrun	50.358315	-4.74285	United Kingdom	5k Cancellation	2021-06-19	COVID-19 (Coronavirus)	https://www.parkrun.org.uk/edenproject	England
Edenvale parkrun	-26.139608	28.14039	South Africa	5k Cancellation	2021-06-19	COVID-19 (Coronavirus)	https://www.parkrun.co.za/edenvale	Gauteng
Edgbaston Reservoir parkrun	52.476722	-1.936437	United Kingdom	5k Cancellation	2021-06-19	COVID-19 (Coronavirus)	https://www.parkrun.org.uk/edgbastonreservoir	England
Edinburgh Oval parkrun	-32.003668	115.891775	Australia	parkrunning			https://www.parkrun.com.au/edinburghoval	Western Australia
Edinburgh parkrun	55.978806	-3.291585	United Kingdom	5k Cancellation	2021-06-19	COVID-19 (Coronavirus)	https://www.parkrun.org.uk/edinburgh	Scotland
Edithburgh parkrun	-35.080717	137.747177	Australia	parkrunning			https://www.parkrun.com.au/edithburgh	South Australia
Eglinton parkrun	55.643935	-4.669662	United Kingdom	5k Cancellation	2021-06-19	COVID-19 (Coronavirus)	https://www.parkrun.org.uk/eglinton	Scotland
Elder Park junior parkrun	55.863242	-4.325388	United Kingdom	junior Cancellation	2021-06-20	COVID-19 (Coronavirus)	https://www.parkrun.org.uk/elderpark-juniors	Scotland
Elgin parkrun	57.653393	-3.313072	United Kingdom	5k Cancellation	2021-06-19	COVID-19 (Coronavirus)	https://www.parkrun.org.uk/elgin	Scotland
Ellenbrook Fields parkrun	51.761787	-0.254277	United Kingdom	5k Cancellation	2021-06-19	COVID-19 (Coronavirus)	https://www.parkrun.org.uk/ellenbrookfields	England
Ellesmere Port parkrun	53.272524	-2.902542	United Kingdom	PtR	2021-06-19	COVID-19 (Coronavirus)	https://www.parkrun.org.uk/ellesmereport	England
Ellon parkrun	57.359262	-2.056968	United Kingdom	5k Cancellation	2021-06-19	COVID-19 (Coronavirus)	https://www.parkrun.org.uk/ellon	Scotland
Eltham junior parkrun	51.455664	0.068186	United Kingdom	junior parkrunning			https://www.parkrun.org.uk/eltham-juniors	England
Emerald parkrun	-23.531435	148.164253	Australia	parkrunning			https://www.parkrun.com.au/emerald	Queensland
Endcliffe parkrun	53.368631	-1.507364	United Kingdom	PtR	2021-06-19	COVID-19 (Coronavirus)	https://www.parkrun.org.uk/endcliffe	England
Enfield Town junior parkrun	51.648422	-0.084363	United Kingdom	junior parkrunning			https://www.parkrun.org.uk/enfieldtown-juniors	England
Enniskillen parkrun	54.343834	-7.642293	United Kingdom	5k Cancellation	2021-06-19	COVID-19 (Coronavirus)	https://www.parkrun.org.uk/enniskillen	Northern Ireland
Eramosa River Trail parkrun	43.540362	-80.241109	Canada	5k Cancellation	2021-06-19	COVID-19 (Coronavirus)	https://www.parkrun.ca/eramosarivertrail	Ontario
Erddig parkrun	53.027137	-3.006833	United Kingdom	5k Cancellation	2021-06-19	COVID-19 (Coronavirus)	https://www.parkrun.org.uk/erddig	Wales
Ernest Ullmann parkrun	-26.078938	28.073178	South Africa	5k Cancellation	2021-06-19	COVID-19 (Coronavirus)	https://www.parkrun.co.za/ernestullmann	Gauteng
Erris parkrun	54.203272	-10.082041	Ireland	5k Cancellation	2021-06-19	COVID-19 (Coronavirus)	https://www.parkrun.ie/erris	Connaught
Esbjerg parkrun	55.482349	8.442703	Denmark	parkrunning			https://www.parkrun.dk/esbjerg	South Denmark
Etna parkrun	37.621125	15.008107	Italy	5k Cancellation	2021-06-19	COVID-19 (Coronavirus)	https://www.parkrun.it/etna	Sicily
Euroa parkrun	-36.752767	145.573825	Australia	5k Cancellation	2021-06-19	COVID-19 Restrictions	https://www.parkrun.com.au/euroa	Victoria
Evesham junior parkrun	52.09023	-1.958169	United Kingdom	junior parkrunning			https://www.parkrun.org.uk/evesham-juniors	England
Evesham parkrun	52.090191	-1.958122	United Kingdom	PtR	2021-06-19	COVID-19 (Coronavirus)	https://www.parkrun.org.uk/evesham	England
Exeter Riverside parkrun	50.713762	-3.525833	United Kingdom	5k Cancellation	2021-06-19	COVID-19 (Coronavirus)	https://www.parkrun.org.uk/exeterriverside	England
Exmouth parkrun	50.614697	-3.412392	United Kingdom	PtR	2021-06-19	COVID-19 (Coronavirus)	https://www.parkrun.org.uk/exmouth	England
Eynesbury Heritage Trail junior parkrun	-37.787396	144.564012	Australia	junior Cancellation	2021-06-20	Covid restrictions in Victoria	https://www.parkrun.com.au/eynesburyheritagetrail-juniors	Victoria
Fairpark Reserve parkrun	-37.867985	145.264418	Australia	5k Cancellation	2021-06-19	Victorian Covid Lockdown	https://www.parkrun.com.au/fairparkreserve	Victoria
Fairview parkrun	53.363864	-6.228896	Ireland	5k Cancellation	2021-06-19	COVID-19 (Coronavirus)	https://www.parkrun.ie/fairview	Leinster
Falcarragh parkrun	55.140535	-8.099661	Ireland	5k Cancellation	2021-06-19	COVID-19 (Coronavirus)	https://www.parkrun.ie/falcarragh	Ulster
Falkirk parkrun	55.99543	-3.766712	United Kingdom	5k Cancellation	2021-06-19	COVID-19 (Coronavirus)	https://www.parkrun.org.uk/falkirk	Scotland
Falls parkrun, Belfast	54.586363	-5.978879	United Kingdom	5k Cancellation	2021-06-19	COVID-19 (Coronavirus)	https://www.parkrun.org.uk/falls	Northern Ireland
Fareham parkrun	50.848448	-1.167385	United Kingdom	PtR	2021-06-19	COVID-19 (Coronavirus)	https://www.parkrun.org.uk/fareham	England
Farfalle parkrun	45.425905	11.902457	Italy	5k Cancellation	2021-06-19	COVID-19 (Coronavirus)	https://www.parkrun.it/farfalle	Veneto
Faskally Forest parkrun	56.7118	-3.767296	United Kingdom	5k Cancellation	2021-06-19	COVID-19 (Coronavirus)	https://www.parkrun.org.uk/faskallyforest	Scotland
Father Collins parkrun	53.405158	-6.16021	Ireland	5k Cancellation	2021-06-19	COVID-19 (Coronavirus)	https://www.parkrun.ie/fathercollins	Leinster
Faversham Recreation Ground junior parkrun	51.312083	0.897824	United Kingdom	junior parkrunning			https://www.parkrun.org.uk/favershamrec-juniors	England
Favorita parkrun	38.159773	13.339815	Italy	5k Cancellation	2021-06-19	COVID-19 (Coronavirus)	https://www.parkrun.it/favorita	Sicily
Felixstowe Prom junior parkrun	51.957785	1.345726	United Kingdom	junior parkrunning			https://www.parkrun.org.uk/felixstoweprom-juniors	England
Felixstowe parkrun	51.957778	1.345741	United Kingdom	PtR	2021-06-19	COVID-19 (Coronavirus)	https://www.parkrun.org.uk/felixstowe	England
Fell Foot parkrun, Newby Bridge	54.274736	-2.952259	United Kingdom	PtR	2021-06-19	COVID-19 (Coronavirus)	https://www.parkrun.org.uk/fellfoot	England
Ferry Meadows parkrun	52.565563	-0.308132	United Kingdom	PtR	2021-06-19	COVID-19 (Coronavirus)	https://www.parkrun.org.uk/ferrymeadows	England
Ferryvale parkrun	-26.42512	28.481447	South Africa	5k Cancellation	2021-06-19	COVID-19 (Coronavirus)	https://www.parkrun.co.za/ferryvale	Gauteng
Festningen parkrun	63.430394	10.410776	Norway	5k Cancellation	2021-06-19	COVID-19 (Coronavirus)	https://www.parkrun.no/festningen	Trøndelag
Ficksburg parkrun	-28.863554	27.881193	South Africa	parkrunning			https://www.parkrun.co.za/ficksburg	Orange Free State
Fingal Bay parkrun	-32.742887	152.170644	Australia	parkrunning			https://www.parkrun.com.au/fingalbay	New South Wales
Finsbury parkrun	51.569595	-0.104145	United Kingdom	PtR	2021-06-19	COVID-19 (Coronavirus)	https://www.parkrun.org.uk/finsbury	England
Firenze parkrun	43.782382	11.216649	Italy	5k Cancellation	2021-06-19	COVID-19 (Coronavirus)	https://www.parkrun.it/firenze	Tuscany
Fish Hoek parkrun	-34.120577	18.398581	South Africa	5k Cancellation	2021-06-19	COVID-19 (Coronavirus)	https://www.parkrun.co.za/fishhoek	Western Cape
Flatts Lane parkrun	54.543872	-1.151741	United Kingdom	PtR	2021-06-19	COVID-19 (Coronavirus)	https://www.parkrun.org.uk/flattslane	England
Flaxmere parkrun	-39.62549	176.789073	New Zealand	parkrunning			https://www.parkrun.co.nz/flaxmere	Hawke's Bay
Fleetwood Promenade parkrun	53.927366	-3.016919	United Kingdom	PtR	2021-06-19	COVID-19 (Coronavirus)	https://www.parkrun.org.uk/fleetwoodpromenade	England
Fletcher Moss parkrun	53.40999	-2.23551	United Kingdom	PtR	2021-06-19	COVID-19 (Coronavirus)	https://www.parkrun.org.uk/fletchermoss	England
Fletcher's Cove parkrun	38.919711	-77.10189	USA	parkrunning			https://www.parkrun.us/fletcherscove	Washington, D.C.
Florence Park junior parkrun	51.737483	-1.223801	United Kingdom	junior parkrunning			https://www.parkrun.org.uk/florencepark-juniors	England
Folkestone parkrun	51.075729	1.172753	United Kingdom	PtR	2021-06-19	COVID-19 (Coronavirus)	https://www.parkrun.org.uk/folkestone	England
Foots Cray Meadows parkrun	51.432103	0.133269	United Kingdom	PtR	2021-06-19	COVID-19 (Coronavirus)	https://www.parkrun.org.uk/footscraymeadows	England
Ford parkrun	54.198427	-3.088135	United Kingdom	PtR	2021-06-19	COVID-19 (Coronavirus)	https://www.parkrun.org.uk/ford	England
Forest Lake parkrun	-27.61964	152.967745	Australia	parkrunning			https://www.parkrun.com.au/forestlake	Queensland
Forest Rec junior parkrun	52.965238	-1.160495	United Kingdom	junior parkrunning			https://www.parkrun.org.uk/forestrec-juniors	England
Forest Rec parkrun	52.965352	-1.159766	United Kingdom	PtR	2021-06-19	COVID-19 (Coronavirus)	https://www.parkrun.org.uk/forestrec	England
Forest of Dean junior parkrun	51.808701	-2.605219	United Kingdom	junior Cancellation	2021-06-20	COVID-19 (Coronavirus)	https://www.parkrun.org.uk/forestofdean-juniors	England
Forest of Dean parkrun	51.808701	-2.605219	United Kingdom	5k Cancellation	2021-06-19	COVID-19 (Coronavirus)	https://www.parkrun.org.uk/forestofdean	England
Foro Italico parkrun	38.120136	13.372298	Italy	5k Cancellation	2021-06-19	COVID-19 (Coronavirus)	https://www.parkrun.it/foroitalico	Sicily
Forster parkrun	-32.180174	152.519554	Australia	parkrunning			https://www.parkrun.com.au/forster	New South Wales
Fort William parkrun	56.851484	-4.999161	United Kingdom	5k Cancellation	2021-06-19	COVID-19 (Coronavirus)	https://www.parkrun.org.uk/fortwilliam	Scotland
Foster parkrun	-43.608599	172.385129	New Zealand	parkrunning			https://www.parkrun.co.nz/foster	Canterbury
Fountains Abbey parkrun	54.110196	-1.581983	United Kingdom	PtR	2021-06-19	COVID-19 (Coronavirus)	https://www.parkrun.org.uk/fountainsabbey	England
Franschhoek parkrun	-33.898945	19.091445	South Africa	5k Cancellation	2021-06-19	COVID-19 (Coronavirus)	https://www.parkrun.co.za/franschhoek	Western Cape
Friary Park junior parkrun	51.619706	-0.162187	United Kingdom	junior parkrunning			https://www.parkrun.org.uk/friarypark-juniors	England
Frickley Country parkrun	53.588573	-1.290457	United Kingdom	PtR	2021-06-19	COVID-19 (Coronavirus)	https://www.parkrun.org.uk/frickleycountry	England
Friedrichsau parkrun	48.411138	10.012702	Germany	5k Cancellation	2021-06-19	COVID-19 (Coronavirus)	https://www.parkrun.com.de/friedrichsau	Baden-Württemberg
Frimley Lodge parkrun	51.298622	-0.724851	United Kingdom	PtR	2021-06-19	COVID-19 (Coronavirus)	https://www.parkrun.org.uk/frimleylodge	England
Frog Hollow parkrun	-37.991559	145.273622	Australia	5k Cancellation	2021-06-19	Victorian COVID restrictions	https://www.parkrun.com.au/froghollow	Victoria
Frédéric Back parkrun	45.558862	-73.620363	Canada	5k Cancellation	2021-06-19	COVID-19 (Coronavirus)	https://www.parkrun.ca/fredericback	Quebec
Fukakitaryokuchi parkrun	34.73032	135.625805	Japan	5k Cancellation	2021-06-19	大阪府に非常事態宣言が発出中で、引き続き外出自粛が要請がされている為	https://www.parkrun.jp/fukakitaryokuchi	Ōsaka
Fulbourn Hospital parkrun	52.184131	0.186094	United Kingdom	5k Cancellation	2021-06-19	COVID-19 (Coronavirus)	https://www.parkrun.org.uk/fulbournhospital	England
Fulham Palace parkrun	51.472465	-0.218493	United Kingdom	PtR	2021-06-19	COVID-19 (Coronavirus)	https://www.parkrun.org.uk/fulhampalace	England
Futakotamagawa parkrun	35.606442	139.633181	Japan	5k Cancellation	2021-06-19	緊急実体宣言	https://www.parkrun.jp/futakotamagawa	Tokyo
Fælledparken parkrun	55.701775	12.568917	Denmark	5k Cancellation	2021-06-19	COVID-19 (Coronavirus)	https://www.parkrun.dk/faelledparken	Capital Region
GEC Rec junior parkrun	52.365561	-1.239956	United Kingdom	junior parkrunning			https://www.parkrun.org.uk/gecrec-juniors	England
Gadebridge Park junior parkrun	51.760476	-0.473894	United Kingdom	junior Cancellation	2021-06-20	COVID-19 (Coronavirus)	https://www.parkrun.org.uk/gadebridgepark-juniors	England
Gadebridge parkrun	51.758909	-0.473542	United Kingdom	PtR	2021-06-19	COVID-19 (Coronavirus)	https://www.parkrun.org.uk/gadebridge	England
Gainsborough Greens parkrun	-27.81877	153.306901	Australia	parkrunning			https://www.parkrun.com.au/gainsboroughgreens	Queensland
Galston parkrun	-33.642734	151.043648	Australia	parkrunning			https://www.parkrun.com.au/galston	New South Wales
Ganavan Sands parkrun	56.437766	-5.469021	United Kingdom	5k Cancellation	2021-06-19	COVID-19 (Coronavirus)	https://www.parkrun.org.uk/ganavansands	Scotland
Gardenhurst Estate junior parkrun	53.13934	-2.668462	United Kingdom	junior parkrunning			https://www.parkrun.org.uk/gardenhurstestate-juniors	England
Gardiners Creek parkrun	-37.845344	145.114787	Australia	5k Cancellation	2021-06-19	COVID 19 restrictions in Victoria	https://www.parkrun.com.au/gardinerscreek	Victoria
Garvey Park parkrun	-31.922558	115.941181	Australia	parkrunning			https://www.parkrun.com.au/garveypark	Western Australia
Gateshead parkrun	54.944733	-1.602094	United Kingdom	PtR	2021-06-19	COVID-19 (Coronavirus)	https://www.parkrun.org.uk/gateshead	England
Gatton parkrun	-27.570426	152.270476	Australia	parkrunning			https://www.parkrun.com.au/gatton	Queensland
Gawler parkrun	-34.590841	138.750027	Australia	parkrunning			https://www.parkrun.com.au/gawler	South Australia
Gayndah River Walk parkrun	-25.624063	151.611063	Australia	parkrunning			https://www.parkrun.com.au/gayndahriverwalk	Queensland
Gedling junior parkrun	52.99389	-1.087241	United Kingdom	junior parkrunning			https://www.parkrun.org.uk/gedling-juniors	England
Gedling parkrun	52.993919	-1.087124	United Kingdom	PtR	2021-06-19	COVID-19 (Coronavirus)	https://www.parkrun.org.uk/gedling	England
Geeveston parkrun	-43.163256	146.925685	Australia	parkrunning			https://www.parkrun.com.au/geeveston	Tasmania
Geographe Bay parkrun	-33.642342	115.354374	Australia	parkrunning			https://www.parkrun.com.au/geographebay	Western Australia
George Lane Memorial parkrun	50.579381	-113.879142	Canada	5k Cancellation	2021-06-19	COVID-19 (Coronavirus)	https://www.parkrun.ca/georgelanememorial	Alberta
George Town parkrun	-41.109186	146.821208	Australia	parkrunning			https://www.parkrun.com.au/georgetown	Tasmania
George parkrun	-33.945385	22.464767	South Africa	5k Cancellation	2021-06-19	COVID-19 (Coronavirus)	https://www.parkrun.co.za/george	Western Cape
Georgengarten parkrun	52.3905	9.702945	Germany	5k Cancellation	2021-06-19	COVID-19 (Coronavirus)	https://www.parkrun.com.de/georgengarten	Lower Saxony
Gibside parkrun	54.920406	-1.731248	United Kingdom	5k Cancellation	2021-06-19	COVID-19 (Coronavirus)	https://www.parkrun.org.uk/gibside	England
Gillies Lake parkrun	48.480373	-81.321352	Canada	5k Cancellation	2021-06-19	COVID-19 (Coronavirus)	https://www.parkrun.ca/gillieslake	Ontario
Gilloolys parkrun	-26.165394	28.131554	South Africa	5k Cancellation	2021-06-19	COVID-19 (Coronavirus)	https://www.parkrun.co.za/gilloolys	Gauteng
Ginninderra parkrun	-35.234051	149.073486	Australia	parkrunning			https://www.parkrun.com.au/ginninderra	Australian Capital Territory
Girvan Prom parkrun	55.243994	-4.862538	United Kingdom	5k Cancellation	2021-06-19	COVID-19 (Coronavirus)	https://www.parkrun.org.uk/girvanprom	Scotland
Gisborne parkrun	-38.671021	178.018082	New Zealand	parkrunning			https://www.parkrun.co.nz/gisborne	Gisborne
Gladstone QLD parkrun	-23.871873	151.238458	Australia	parkrunning			https://www.parkrun.com.au/gladstoneqld	Queensland
Gladstone parkrun	51.556982	-0.228223	United Kingdom	PtR	2021-06-19	COVID-19 (Coronavirus)	https://www.parkrun.org.uk/gladstone	England
Glass House Mountains Conservation parkrun	-26.986817	152.823678	Australia	parkrunning			https://www.parkrun.com.au/glasshousemountainsconservation	Queensland
Glen River parkrun	51.912716	-8.455532	Ireland	5k Cancellation	2021-06-19	COVID-19 (Coronavirus)	https://www.parkrun.ie/glenriver	Munster
Glengarriff parkrun	51.755548	-9.566904	Ireland	5k Cancellation	2021-06-19	COVID-19 (Coronavirus)	https://www.parkrun.ie/glengarriff	Munster
Globe parkrun	49.110666	9.735054	Germany	5k Cancellation	2021-06-19	COVID-19 (Coronavirus)	https://www.parkrun.com.de/globe	Baden-Württemberg
Glossop parkrun	53.447019	-1.939503	United Kingdom	PtR	2021-06-19	COVID-19 (Coronavirus)	https://www.parkrun.org.uk/glossop	England
Gloucester City parkrun	51.858707	-2.243129	United Kingdom	PtR	2021-06-19	COVID-19 (Coronavirus)	https://www.parkrun.org.uk/gloucestercity	England
Gloucester District parkrun	-32.00456	151.953594	Australia	parkrunning			https://www.parkrun.com.au/gloucesterdistrict	New South Wales
Gloucester North parkrun	51.878304	-2.231707	United Kingdom	PtR	2021-06-19	COVID-19 (Coronavirus)	https://www.parkrun.org.uk/gloucesternorth	England
Gnoll junior parkrun	51.662428	-3.787224	United Kingdom	junior Cancellation	2021-06-20	COVID-19 (Coronavirus)	https://www.parkrun.org.uk/gnoll-juniors	Wales
Gnoll parkrun	51.661114	-3.788616	United Kingdom	5k Cancellation	2021-06-19	COVID-19 (Coronavirus)	https://www.parkrun.org.uk/gnoll	Wales
Goffert parkrun	51.82902	5.833825	Netherlands	5k Cancellation	2021-06-19	COVID-19 (Coronavirus)	https://www.parkrun.co.nl/goffert	Gelderland
Golden Beach parkrun	-26.829014	153.120795	Australia	parkrunning			https://www.parkrun.com.au/goldenbeach	Queensland
Golden Harvest parkrun	-26.069116	27.95355	South Africa	5k Cancellation	2021-06-19	COVID-19 (Coronavirus)	https://www.parkrun.co.za/goldenharvest	Gauteng
Goldfields Reservoir parkrun	-37.065018	143.731855	Australia	5k Cancellation	2021-06-19	COVID restrictions	https://www.parkrun.com.au/goldfieldsreservoir	Victoria
Goodwill parkrun	-25.861944	25.65054	South Africa	5k Cancellation	2021-06-19	COVID-19 (Coronavirus)	https://www.parkrun.co.za/goodwill	North-West
Goole parkrun	53.710492	-0.891098	United Kingdom	PtR	2021-06-19	COVID-19 (Coronavirus)	https://www.parkrun.org.uk/goole	England
Goolwa parkrun	-35.499385	138.789448	Australia	parkrunning			https://www.parkrun.com.au/goolwa	South Australia
Goondiwindi parkrun	-28.54951	150.307043	Australia	parkrunning			https://www.parkrun.com.au/goondiwindi	Queensland
Gorey parkrun	52.683044	-6.296041	Ireland	5k Cancellation	2021-06-19	COVID-19 (Coronavirus)	https://www.parkrun.ie/gorey	Leinster
